,job_id,benefits,bid,campaign_budget,campaign_id,city_name,company_logo,company_name,description,feed_id,lat,lon,major_category,minor_category,pay_currentcy,pay_from,pay_option,pay_to,pay_type,postal_code,requirements,state,status,title,work_schedule
0,769,"['Health insurance', 'Paid time off (PTO) such as sick day and vacation days']",0,,12,Elmhurst,https://objectstorage.us-ashburn-1.oraclecloud.com/n/idapel7w8ikn/b/company-dev/o/logo_1_1658851110628.jpeg,GOTORO,Description,,40.7389,-73.8786,Education / Higher Education,Enrollment / General,,2000.0,0.0,,1.0,11373,"['aa', 'Sleep']",New York,2,Job 1514,Full Time
1,1863,['Employee assistance programs(mental and emotional wellbing)'],0,,69,Bell Gardens,,Gotoro 10052 ,create bt lta 725 512,,33.9707,-118.171,Construction / Facilities,Foreman,,12.0,2.0,,1.0,90201,['C#'],California,1,create bt lta 725 512,FULL_TIME
2,1199,['Retirement benefit or accounts'],0,,1,Forest Hills,https://objectstorage.us-ashburn-1.oraclecloud.com/n/idapel7w8ikn/b/company-dev/o/logo_1_1658851110628.jpeg,GOTORO,create job bt lta 720 348,,40.7209,-73.8461,Construction / Facilities,Line Worker,,12344.0,0.0,,1.0,11375,"['C#', 'Sleep']",New York,1,create job bt lta 720 350,Full Time
3,114,[],0,,1,Carrollton,https://objectstorage.us-ashburn-1.oraclecloud.com/n/idapel7w8ikn/b/company-dev/o/logo_1_1658851110628.jpeg,GOTORO,"Do you have 1-3 years of sales experience? Are you
            relentless at closing the deal? Are you ready for an exciting and
            high-speed career in sales? If so, we want to hear from you! [...]
            We provide competitive compensation, including stock options and a full
            benefit plan. As a fast-growing business, we offer excellent opportunities
            for exciting and challenging work. As our company continues to grow, you
            can expect unlimited career advancement! ",,33.0046,-96.8971,Capital Markets,Trader,,50.0,1.0,,1.0,75007,"['Javascript', 'C#', 'Hazmat Endorsement', 'Hazmat Endorsement', 'Hazmat Endorsement']",Texas,2,Sales Executive,
4,660,"['Health insurance', 'Paid time off (PTO) such as sick day and vacation days']",0,,48,Freehold,https://objectstorage.us-ashburn-1.oraclecloud.com/n/idapel7w8ikn/b/company-dev/o/logo_33_1658591981306.jpg,managedclient23,letheanh test question desc,,40.2254,-74.2854,Construction / Facilities,Building Inspection,,12345.0,0.0,,1.0,7728,"['mySql', 'Sleep']",New Jersey,1,letheanh test question,Full Time
5,1193,['Retirement benefit or accounts'],0,,1,Elmhurst,https://objectstorage.us-ashburn-1.oraclecloud.com/n/idapel7w8ikn/b/company-dev/o/logo_1_1658851110628.jpeg,GOTORO,create job bt lta 720 348,,40.7389,-73.8786,Construction / Facilities,Line Worker,,12344.0,0.0,,1.0,11373,"['C#', 'Sleep']",New York,1,create job bt lta 720 350,Full Time
6,53,['Paid time off (PTO) such as sick day and vacation days'],0,,1,League City,https://objectstorage.us-ashburn-1.oraclecloud.com/n/idapel7w8ikn/b/company-dev/o/logo_1_1658851110628.jpeg,GOTORO,123123,,29.5021,-95.0865,Capital Markets,Trader,,,,,,77573,['Javascript'],Texas,2,123,Full Time
7,987,"['Paid time off (PTO) such as sick day and vacation days', 'Flexible and remote working options', 'Employee assistance programs(mental and emotional wellbing)']",0,,127,Frisco,,FPT,aaa,,33.152,-96.8604,Construction / Facilities,Demolitions,,1300.0,0.0,,1.0,75034,"['Javascript', 'mySql', 'aa']",Texas,1,FE Con meo,Full Time
8,1940,"['Flexible and remote working options', 'Retirement benefit or accounts']",0,,1,Pico Rivera,https://objectstorage.us-ashburn-1.oraclecloud.com/n/idapel7w8ikn/b/company-dev/o/logo_1_1658851110628.jpeg,GOTORO,dessc,,33.9694,-118.098,Capital Markets,Trader,,600.0,0.0,,1.0,90662,"['Php', 'bb']",California,1,crypto digger,FULL_TIME
9,878,['Life insurance'],0,,12,Clayton,https://objectstorage.us-ashburn-1.oraclecloud.com/n/idapel7w8ikn/b/company-dev/o/logo_1_1658851110628.jpeg,GOTORO,Description,,37.8902,-121.878,Construction / Facilities,Line Worker,,2000.0,0.0,,1.0,94517,['C#'],California,2,Job1341,Part Time
10,110,['Flexible and remote working options'],0,,4,Woodstock,https://objectstorage.us-ashburn-1.oraclecloud.com/n/idapel7w8ikn/b/company-dev/o/logo_1_1658851110628.jpeg,GOTORO,Desc,,34.1188,-84.4555,Capital Markets,Trader,,,,,,30188,['Javascript'],Georgia,1,Job1,Contract
11,91,"['Paid time off (PTO) such as sick day and vacation days', 'Life insurance']",0,,5,Brooklyn,https://objectstorage.us-ashburn-1.oraclecloud.com/n/idapel7w8ikn/b/company-dev/o/logo_1_1658851110628.jpeg,GOTORO,123,,40.6221,-73.9651,Capital Markets,Trader,,,,,,11230,"['Javascript', 'C#']",New York,1,123,Part Time
12,128,['Health insurance'],0,,10,Los Angeles,https://objectstorage.us-ashburn-1.oraclecloud.com/n/idapel7w8ikn/b/company-dev/o/logo_1_1658851110628.jpeg,GOTORO,Desc,,34.0245,-118.156,Capital Markets,Trader,,,,,,90022,['Javascript'],California,1,Job 132,Full Time
13,363,['Retirement benefit or accounts'],0,,59,Pacoima,https://objectstorage.us-ashburn-1.oraclecloud.com/n/idapel7w8ikn/b/company-dev/o/logo_33_1658591981306.jpg,managedclient23,Desc,,34.2556,-118.421,Capital Markets,Trader,,2000.0,0.0,,1.0,91331,['mySql'],California,2,Job 1130,Part Time
14,251,"['Paid time off (PTO) such as sick day and vacation days', 'Flexible and remote working options', 'Life insurance', 'Retirement benefit or accounts']",0,,9,Lewisville,https://objectstorage.us-ashburn-1.oraclecloud.com/n/idapel7w8ikn/b/company-dev/o/logo_1_1658851110628.jpeg,GOTORO,We are currently seeking a new Frontend Developer to join our expanding team.,,33.0137,-97.0003,Capital Markets,Trader,,2000.0,0.0,,1.0,75067,"['Javascript', 'C#', 'mySql']",Texas,2,PHP 1,Full Time
15,744,['Retirement benefit or accounts'],0,,117,Westminster,https://objectstorage.us-ashburn-1.oraclecloud.com/n/idapel7w8ikn/b/company-dev/o/logo_33_1658591981306.jpg,managedclient23,this is a job,,33.7525,-117.994,Construction / Facilities,Line Worker,,5000.0,0.0,,1.0,92683,['C#'],California,1,Recruit IT BA,Full Time
16,778,['Health insurance'],0,,11,Cypress,https://objectstorage.us-ashburn-1.oraclecloud.com/n/idapel7w8ikn/b/company-dev/o/logo_1_1658851110628.jpeg,GOTORO,Desc,,29.991,-95.6588,Education / Higher Education,Speech Pathologist,,2222.0,0.0,,1.0,77429,['Javascript'],Texas,1,Job 1550,Part Time
17,819,['Health insurance'],0,,15,Baldwin Park,https://objectstorage.us-ashburn-1.oraclecloud.com/n/idapel7w8ikn/b/company-dev/o/logo_1_1658851110628.jpeg,GOTORO,Description,,34.0964,-117.968,Construction / Facilities,Line Worker,,2000.0,0.0,,1.0,91706,['Sleep'],California,1,Job 1030,Part Time
18,310,"['Health insurance', 'Flexible and remote working options', 'Retirement benefit or accounts']",0,,97,Los Angeles,https://objectstorage.us-ashburn-1.oraclecloud.com/n/idapel7w8ikn/b/company-dev/o/logo_1_1658851110628.jpeg,GOTORO,Desc,,33.9528,-118.292,Capital Markets,Trader,,123.0,0.0,,1.0,90044,"['Javascript', 'C#', 'mySql']",California,1,Job 220,Full Time
19,849,"['Life insurance', 'Paid time off (PTO) such as sick day and vacation days']",0,,1,Katy,https://objectstorage.us-ashburn-1.oraclecloud.com/n/idapel7w8ikn/b/company-dev/o/logo_1_1658851110628.jpeg,GOTORO,create job test by lta 712 301,,29.8521,-95.8309,Construction / Facilities,Demolitions,,1234.0,0.0,,1.0,77493,"['bb', 'Sleep']",Texas,1,create job test by lta 712 301,Full Time
20,247,"['Paid time off (PTO) such as sick day and vacation days', 'Flexible and remote working options', 'Life insurance', 'Retirement benefit or accounts']",0,,9,Keller,https://objectstorage.us-ashburn-1.oraclecloud.com/n/idapel7w8ikn/b/company-dev/o/logo_1_1658851110628.jpeg,GOTORO,We are currently seeking a new Frontend Developer to join our expanding team.,,32.931,-97.2843,Capital Markets,Trader,,2000.0,0.0,,1.0,76244,"['Javascript', 'C#', 'mySql']",Texas,2,PHP 1,Full Time
21,919,"['Health insurance', 'Life insurance']",0,,122,Sugar Land,,test,test 1407 0924,,29.5665,-95.6356,Construction / Facilities,Foreman,,1000.0,0.0,,1.0,77479,"['C#', 'Sleep']",Texas,1,test 1407 0924,Part Time
22,214,"['Employee assistance programs(mental and emotional wellbing)', 'Paid time off (PTO) such as sick day and vacation days', 'Life insurance']",0,,7,Suwanee,https://objectstorage.us-ashburn-1.oraclecloud.com/n/idapel7w8ikn/b/company-dev/o/logo_1_1658851110628.jpeg,GOTORO,Desc,,34.0624,-84.0907,Capital Markets,Trader,,2000.0,0.0,,1.0,30024,"['C#', 'Javascript']",Georgia,1,Job 118,Full Time
23,429,"['Flexible and remote working options', 'Retirement benefit or accounts']",0,,5,Chicago,https://objectstorage.us-ashburn-1.oraclecloud.com/n/idapel7w8ikn/b/company-dev/o/logo_1_1658851110628.jpeg,GOTORO,desc,,41.7757,-87.7118,Construction / Facilities,Finish Carpenter,,2000.0,0.0,,1.0,60629,"['Javascript', 'C#']",Illinois,1,Job 338,Part Time
24,117,['Health insurance'],0,,10,Westminster,https://objectstorage.us-ashburn-1.oraclecloud.com/n/idapel7w8ikn/b/company-dev/o/logo_1_1658851110628.jpeg,GOTORO,Desc,,33.7525,-117.994,Capital Markets,Trader,,,,,,92683,['Javascript'],California,1,Job 132,Full Time
25,998,"['Paid time off (PTO) such as sick day and vacation days', 'Flexible and remote working options', 'Employee assistance programs(mental and emotional wellbing)']",0,,127,South Gate,,FPT,aaa,,33.9446,-118.193,Construction / Facilities,Demolitions,,1300.0,0.0,,1.0,90280,"['Javascript', 'mySql', 'aa']",California,1,FE Con meo,Full Time
26,1224,"['Health insurance', 'Flexible and remote working options']",0,,4,Los Angeles,https://objectstorage.us-ashburn-1.oraclecloud.com/n/idapel7w8ikn/b/company-dev/o/logo_1_1658851110628.jpeg,GOTORO,create job by lta 720 419 desc,,33.967,-118.172,Construction / Facilities,Demolitions,,1234.0,0.0,,1.0,90096,"['C#', 'Sleep']",California,1,create job by lta 720 419,Part Time
27,547,"['Paid time off (PTO) such as sick day and vacation days', 'SQL']",0,,54,Hawthorne,https://objectstorage.us-ashburn-1.oraclecloud.com/n/idapel7w8ikn/b/company-dev/o/logo_33_1658591981306.jpg,managedclient23,Desc,,33.9144,-118.349,Education / Higher Education,Enrollment / General,,1000.0,0.0,,1.0,90250,"['Javascript', 'VueJs']",California,1,Job 1258,Part Time
28,144,['Health insurance'],0,,54,Chicago,https://objectstorage.us-ashburn-1.oraclecloud.com/n/idapel7w8ikn/b/company-dev/o/logo_33_1658591981306.jpg,managedclient23,tt,,41.8803,-87.6877,Capital Markets,Trader,,22.0,0.0,,1.0,60612,['Javascript'],Illinois,1,tester,Part Time
29,1275,['Life insurance'],0,,70,Woodside,,FPT - managed,adasd,,40.7448,-73.9052,Construction / Facilities,Highway Maintenance,,123.0,2.0,,1.0,11377,['C#'],New York,1,Who your daddy,Full Time
30,948,['Life insurance'],0,,13,Lynwood,https://objectstorage.us-ashburn-1.oraclecloud.com/n/idapel7w8ikn/b/company-dev/o/logo_1_1658851110628.jpeg,GOTORO,Job1415147,,33.9236,-118.201,Education / Higher Education,Counselor,,2000.0,0.0,,1.0,90262,['Sleep'],California,1,Job1415147,Part Time
31,718,['PHP'],0,,51,Houston,https://objectstorage.us-ashburn-1.oraclecloud.com/n/idapel7w8ikn/b/company-dev/o/logo_1_1658851110628.jpeg,GOTORO,Description,,29.7454,-95.6133,Education / Higher Education,Teacher - Preschool,,1000.0,0.0,,1.0,77282,"['bb', 'Sleep']",Texas,1,Job 0003,Part Time
32,567,['Employee assistance programs(mental and emotional wellbing)'],0,,48,Houston,https://objectstorage.us-ashburn-1.oraclecloud.com/n/idapel7w8ikn/b/company-dev/o/logo_33_1658591981306.jpg,managedclient23,12,,29.8297,-95.4738,Finance,Auditors1,,100.0,0.0,,1.0,77092,"['Javascript', 'Php']",Texas,1,PHP FE,Part Time
33,120,['Health insurance'],0,,10,Long Beach,https://objectstorage.us-ashburn-1.oraclecloud.com/n/idapel7w8ikn/b/company-dev/o/logo_1_1658851110628.jpeg,GOTORO,Desc,,33.8649,-118.181,Capital Markets,Trader,,,,,,90805,['Javascript'],California,1,Job 132,Full Time
34,1450,"['Retirement benefit or accounts', 'PHP']",0,,12,Fairfield,https://objectstorage.us-ashburn-1.oraclecloud.com/n/idapel7w8ikn/b/company-dev/o/logo_1_1658851110628.jpeg,GOTORO,Desc,,38.2423,-122.131,Construction / Facilities,Demolitions,,1000.0,0.0,,1.0,94534,"['C#', 'aa']",California,2,Job 1518,PART_TIME
35,1191,['Retirement benefit or accounts'],0,,1,Corona,https://objectstorage.us-ashburn-1.oraclecloud.com/n/idapel7w8ikn/b/company-dev/o/logo_1_1658851110628.jpeg,GOTORO,create job bt lta 720 348,,40.7496,-73.8526,Construction / Facilities,Line Worker,,12344.0,0.0,,1.0,11368,"['C#', 'Sleep']",New York,1,create job bt lta 720 350,Full Time
36,1109,['Retirement benefit or accounts'],0,,13,Concord,https://objectstorage.us-ashburn-1.oraclecloud.com/n/idapel7w8ikn/b/company-dev/o/logo_1_1658851110628.jpeg,GOTORO,Job1411147,,38.0154,-122.023,Emergency Services / Enforcement,Correctional Officesr and Jailers,,123.0,2.0,,1.0,94522,['C#'],California,1,Job1411147,Full Time
37,1902,"['Life insurance', 'Paid time off (PTO) such as sick day and vacation days']",0,,1,Fair Oaks,https://objectstorage.us-ashburn-1.oraclecloud.com/n/idapel7w8ikn/b/company-dev/o/logo_1_1658851110628.jpeg,GOTORO,desc,,38.652,-121.254,Construction / Facilities,Demolitions,,3000.0,0.0,,1.0,95628,"['Php', 'aa']",California,1,shipper,FULL_TIME
38,504,"['Health insurance', 'Life insurance']",0,,100,Richmond,https://objectstorage.us-ashburn-1.oraclecloud.com/n/idapel7w8ikn/b/company-dev/o/logo_33_1658591981306.jpg,managedclient23,123,,29.6765,-95.7125,Construction / Facilities,Foreman,,123.0,0.0,,1.0,77407,"['Javascript', 'C#']",Texas,1,123,Part Time
39,1072,"['Employee assistance programs(mental and emotional wellbing)', 'Paid time off (PTO) such as sick day and vacation days', 'Flexible and remote working options']",0,,48,Brentwood,https://objectstorage.us-ashburn-1.oraclecloud.com/n/idapel7w8ikn/b/company-dev/o/logo_33_1658591981306.jpg,managedclient23,"Develop Apex (classes and triggers), Lightning Components, and Visualforce to extend Salesforce in order to support business requirements,",,40.7838,-73.2523,Construction / Facilities,Foreman,,1000.0,0.0,,1.0,11717,['Javascript'],New York,1,Junior Salesforce Developer (JavaScript),Full Time
40,1318,"['Employee assistance programs(mental and emotional wellbing)', 'Paid time off (PTO) such as sick day and vacation days']",0,,53,Lakewood,,FPT - managed,create job title bt lta 328 721,,40.0765,-74.2032,Construction / Facilities,Line Worker,,1230.0,2.0,,1.0,8701,['C#'],New Jersey,1,create job title bt lta 328 721,Full Time
41,1909,"['Life insurance', 'Paid time off (PTO) such as sick day and vacation days']",0,,1,Loomis,https://objectstorage.us-ashburn-1.oraclecloud.com/n/idapel7w8ikn/b/company-dev/o/logo_1_1658851110628.jpeg,GOTORO,desc,,38.8128,-121.171,Construction / Facilities,Demolitions,,3000.0,0.0,,1.0,95650,"['Php', 'aa']",California,1,shipper,FULL_TIME
42,1937,"['Flexible and remote working options', 'Retirement benefit or accounts']",0,,1,Bell,https://objectstorage.us-ashburn-1.oraclecloud.com/n/idapel7w8ikn/b/company-dev/o/logo_1_1658851110628.jpeg,GOTORO,dessc,,33.9699,-118.152,Capital Markets,Trader,,600.0,0.0,,1.0,90202,"['Php', 'bb']",California,1,crypto digger,FULL_TIME
43,219,"['Employee assistance programs(mental and emotional wellbing)', 'Paid time off (PTO) such as sick day and vacation days', 'Life insurance']",0,,7,Alpharetta,https://objectstorage.us-ashburn-1.oraclecloud.com/n/idapel7w8ikn/b/company-dev/o/logo_1_1658851110628.jpeg,GOTORO,Desc,,34.0862,-84.2159,Capital Markets,Trader,,2000.0,0.0,,1.0,30005,"['C#', 'Javascript']",Georgia,2,Job 118,Full Time
44,1897,['Employee assistance programs(mental and emotional wellbing)'],0,,53,Katy,,FPT - managed,đâsdas,,29.8356,-95.7381,Capital Markets,Trader,,12.0,2.0,,1.0,77449,"['bb', 'mySql']",Texas,1,create job bt lta 726 1026,FULL_TIME
45,695,['Health insurance'],0,,1,Woodside,https://objectstorage.us-ashburn-1.oraclecloud.com/n/idapel7w8ikn/b/company-dev/o/logo_1_1658851110628.jpeg,GOTORO,Description,,40.7448,-73.9052,Construction / Facilities,Foreman,,2000.0,0.0,,1.0,11377,"['mySql', 'aa']",New York,1,Job 2341,Full Time
46,475,"['Life insurance', 'SOS', 'Nha']",0,,55,Bronx,https://objectstorage.us-ashburn-1.oraclecloud.com/n/idapel7w8ikn/b/company-dev/o/logo_1_1658851110628.jpeg,GOTORO,Desc,,40.8624,-73.8883,Education / Higher Education,Teacher - Preschool,,2000.0,0.0,,1.0,10458,"['Javascript', 'C#', 'aa', 'bb']",New York,1,Job 1136,Full Time
47,140,['Health insurance'],0,,33,Frisco,https://objectstorage.us-ashburn-1.oraclecloud.com/n/idapel7w8ikn/b/company-dev/o/logo_1_1658851110628.jpeg,GOTORO,22,,33.1553,-96.7727,Capital Markets,Financial Sales / Broker,,,,,,75035,['Javascript'],Texas,1,test so luong,Part Time
48,308,"['Health insurance', 'Life insurance', 'Paid time off (PTO) such as sick day and vacation days']",0,,93,Fort Bliss,https://objectstorage.us-ashburn-1.oraclecloud.com/n/idapel7w8ikn/b/company-dev/o/logo_33_1658591981306.jpg,managedclient23,Description,,31.814,-106.418,Capital Markets,Trader,,2000.0,2.0,,1.0,79916,"['Javascript', 'C#']",Texas,1,Backend 20/6/2022,Full Time
49,782,['Health insurance'],0,,11,Tomball,https://objectstorage.us-ashburn-1.oraclecloud.com/n/idapel7w8ikn/b/company-dev/o/logo_1_1658851110628.jpeg,GOTORO,Desc,,30.0954,-95.5894,Education / Higher Education,Speech Pathologist,,2222.0,0.0,,1.0,77375,['Javascript'],Texas,1,Job 1550,Part Time
50,483,"['Life insurance', 'More pay', 'SOS', 'Nha']",0,,55,Staten Island,https://objectstorage.us-ashburn-1.oraclecloud.com/n/idapel7w8ikn/b/company-dev/o/logo_1_1658851110628.jpeg,GOTORO,Desc,,40.5991,-74.1657,Education / Higher Education,Teacher - Preschool,,2000.0,2.0,,1.0,10314,"['Javascript', 'C#', 'Php', 'aa', 'bb']",New York,1,Job 1136_update,Full Time
51,55,['Paid time off (PTO) such as sick day and vacation days'],0,,1,Missouri City,https://objectstorage.us-ashburn-1.oraclecloud.com/n/idapel7w8ikn/b/company-dev/o/logo_1_1658851110628.jpeg,GOTORO,123123,,29.5257,-95.533,Capital Markets,Trader,,,,,,77459,['Javascript'],Texas,2,123,Full Time
52,1320,"['Employee assistance programs(mental and emotional wellbing)', 'Paid time off (PTO) such as sick day and vacation days']",0,,53,Lakewood,,FPT - managed,create job title bt lta 328 721,,40.0765,-74.2032,Construction / Facilities,Line Worker,,1230.0,0.0,,1.0,8701,['C#'],New Jersey,1,create job title bt lta 328 721,Part Time
53,779,['Health insurance'],0,,11,Spring,https://objectstorage.us-ashburn-1.oraclecloud.com/n/idapel7w8ikn/b/company-dev/o/logo_1_1658851110628.jpeg,GOTORO,Desc,,30.0391,-95.5338,Education / Higher Education,Speech Pathologist,,2222.0,0.0,,1.0,77379,['Javascript'],Texas,1,Job 1550,Part Time
54,976,"['Flexible and remote working options', 'Paid time off (PTO) such as sick day and vacation days', 'Employee assistance programs(mental and emotional wellbing)']",0,,57,Brooklyn,https://objectstorage.us-ashburn-1.oraclecloud.com/n/idapel7w8ikn/b/company-dev/o/logo_33_1658591981306.jpg,managedclient23,qqweqwe,,40.6221,-73.9651,Construction / Facilities,Demolitions,,1000.0,0.0,,1.0,11230,"['Javascript', 'C#']",New York,2,FE 0002,Full Time
55,1013,['Life insurance'],0,,141,Ohio,,self_client_01,desc,,41.5505,-89.445,Construction / Facilities,Line Worker,,400.0,0.0,,1.0,61349,['mySql'],Illinois,2,Job senior tester,Part Time
56,662,"['Health insurance', 'Paid time off (PTO) such as sick day and vacation days']",0,,48,Howell,https://objectstorage.us-ashburn-1.oraclecloud.com/n/idapel7w8ikn/b/company-dev/o/logo_33_1658591981306.jpg,managedclient23,letheanh test question desc,,40.1498,-74.2001,Construction / Facilities,Building Inspection,,12345.0,0.0,,1.0,7731,"['mySql', 'Sleep']",New Jersey,1,letheanh test question,Full Time
57,255,"['Paid time off (PTO) such as sick day and vacation days', 'Flexible and remote working options', 'Life insurance', 'Retirement benefit or accounts']",0,,9,Mesquite,https://objectstorage.us-ashburn-1.oraclecloud.com/n/idapel7w8ikn/b/company-dev/o/logo_1_1658851110628.jpeg,GOTORO,We are currently seeking a new Frontend Developer to join our expanding team.,,32.8158,-96.6304,Capital Markets,Trader,,2000.0,0.0,,1.0,75150,"['Javascript', 'C#', 'mySql']",Texas,2,PHP 1,Full Time
58,1303,['Life insurance'],0,,70,Hidalgo,,FPT - managed,adasd,,26.1069,-98.2434,Construction / Facilities,Highway Maintenance,,123.0,2.0,,1.0,78557,['C#'],Texas,1,Who your daddy,Full Time
59,331,"['Health insurance', 'Life insurance', 'Paid time off (PTO) such as sick day and vacation days']",0,,96,Chicago,https://objectstorage.us-ashburn-1.oraclecloud.com/n/idapel7w8ikn/b/company-dev/o/logo_1_1658851110628.jpeg,GOTORO,Desc,,41.8481,-87.7178,Capital Markets,Trader,,2000.0,0.0,,1.0,60623,"['Javascript', 'C#', 'mySql']",Illinois,1,Job 228,Part Time
60,129,['Health insurance'],0,,10,Lynwood,https://objectstorage.us-ashburn-1.oraclecloud.com/n/idapel7w8ikn/b/company-dev/o/logo_1_1658851110628.jpeg,GOTORO,Desc,,33.9236,-118.201,Capital Markets,Trader,,,,,,90262,['Javascript'],California,1,Job 132,Full Time
61,530,"['Paid time off (PTO) such as sick day and vacation days', 'SQL']",0,,54,Los Angeles,https://objectstorage.us-ashburn-1.oraclecloud.com/n/idapel7w8ikn/b/company-dev/o/logo_33_1658591981306.jpg,managedclient23,Desc,,33.9528,-118.292,Education / Higher Education,Enrollment / General,,1000.0,0.0,,1.0,90044,"['Javascript', 'VueJs']",California,1,Job 1258,Part Time
62,1899,"['Life insurance', 'Paid time off (PTO) such as sick day and vacation days']",0,,1,Folsom,https://objectstorage.us-ashburn-1.oraclecloud.com/n/idapel7w8ikn/b/company-dev/o/logo_1_1658851110628.jpeg,GOTORO,desc,,38.6671,-121.142,Construction / Facilities,Demolitions,,3000.0,0.0,,1.0,95630,"['Php', 'aa']",California,1,shipper,FULL_TIME
63,631,['Paid time off (PTO) such as sick day and vacation days'],0,,103,Richmond,https://objectstorage.us-ashburn-1.oraclecloud.com/n/idapel7w8ikn/b/company-dev/o/logo_33_1658591981306.jpg,managedclient23,Desc,,29.6436,-95.798,Executive,Regional / Divisional VP,,2000.0,0.0,,1.0,77406,['C#'],Texas,2,Job 2239,Part Time
64,960,"['Flexible and remote working options', 'Retirement benefit or accounts', 'Employee assistance programs(mental and emotional wellbing)']",0,,57,Chicago,https://objectstorage.us-ashburn-1.oraclecloud.com/n/idapel7w8ikn/b/company-dev/o/logo_33_1658591981306.jpg,managedclient23,FE,,41.8113,-87.7133,Construction / Facilities,Foreman,,1000.0,0.0,,1.0,60632,"['Javascript', 'Sleep']",Illinois,2,FE 001,Full Time
65,551,"['Paid time off (PTO) such as sick day and vacation days', 'SQL']",0,,54,Huntington Park,https://objectstorage.us-ashburn-1.oraclecloud.com/n/idapel7w8ikn/b/company-dev/o/logo_33_1658591981306.jpg,managedclient23,Desc,,33.977,-118.217,Education / Higher Education,Enrollment / General,,1000.0,0.0,,1.0,90255,"['Javascript', 'VueJs']",California,1,Job 1258,Part Time
66,1992,['Health insurance'],0,,10,Forest Hills,https://objectstorage.us-ashburn-1.oraclecloud.com/n/idapel7w8ikn/b/company-dev/o/logo_1_1658851110628.jpeg,GOTORO,desc,,40.7209,-73.8461,Capital Markets,Financial Sales / Broker,,1000.0,2.0,,1.0,11375,['Javascript'],New York,1,Job1427_update,PART_TIME
67,1933,"['Flexible and remote working options', 'Retirement benefit or accounts']",0,,1,Hawaiian Gardens,https://objectstorage.us-ashburn-1.oraclecloud.com/n/idapel7w8ikn/b/company-dev/o/logo_1_1658851110628.jpeg,GOTORO,dessc,,33.8305,-118.073,Capital Markets,Trader,,600.0,0.0,,1.0,90716,"['Php', 'bb']",California,1,crypto digger,FULL_TIME
68,1162,"['Life insurance', 'Health insurance']",0,,63,Hacienda Heights,,Gotoro 6,Desc,,33.9993,-117.973,Education / Higher Education,Teacher - Preschool,,2000.0,2.0,,1.0,91745,['mySql'],California,1,Job2252187,Part Time
69,1539,"['Health insurance', 'Life insurance']",0,,222,Rosenberg,https://objectstorage.us-ashburn-1.oraclecloud.com/n/idapel7w8ikn/b/company-dev/o/logo_1_1658851110628.jpeg,GOTORO,"excellent communicator, great at number and analytical skills",,29.546,-95.8681,Finance,Financial Advisor,,2000.0,0.0,,1.0,77471,['mySql'],Texas,1,Data Analyst,FULL_TIME
70,649,['Flexible and remote working options'],0,,5,Katy,https://objectstorage.us-ashburn-1.oraclecloud.com/n/idapel7w8ikn/b/company-dev/o/logo_1_1658851110628.jpeg,GOTORO,Description,,29.7463,-95.7383,Construction / Facilities,Masonry - Finishing,,2000.0,0.0,,1.0,77450,['Javascript'],Texas,2,Job 1052,Full Time
71,1295,['Life insurance'],0,,70,Mission,,FPT - managed,adasd,,26.2281,-98.3767,Construction / Facilities,Highway Maintenance,,123.0,2.0,,1.0,78572,['C#'],Texas,1,Who your daddy,Full Time
72,1286,['Life insurance'],0,,70,South Richmond Hill,,FPT - managed,adasd,,40.6886,-73.823,Construction / Facilities,Highway Maintenance,,123.0,2.0,,1.0,11419,['C#'],New York,1,Who your daddy,Full Time
73,701,"['Paid time off (PTO) such as sick day and vacation days', 'Life insurance']",0,,79,Cypress,,Publisher Company,This is job description,,29.9727,-95.6968,Construction / Facilities,Line Worker,,2000.0,0.0,,1.0,77410,"['Javascript', 'mySql']",Texas,1,Job 0000,Part Time
74,646,['Flexible and remote working options'],0,,5,Houston,https://objectstorage.us-ashburn-1.oraclecloud.com/n/idapel7w8ikn/b/company-dev/o/logo_1_1658851110628.jpeg,GOTORO,Description,,29.8264,-95.6621,Construction / Facilities,Masonry - Finishing,,2000.0,0.0,,1.0,77084,['Javascript'],Texas,2,Job 1052,Full Time
75,874,['Life insurance'],0,,12,Pittsburg,https://objectstorage.us-ashburn-1.oraclecloud.com/n/idapel7w8ikn/b/company-dev/o/logo_1_1658851110628.jpeg,GOTORO,Description,,38.0158,-121.907,Construction / Facilities,Line Worker,,2000.0,0.0,,1.0,94565,['C#'],California,2,Job1341,Part Time
76,1999,['Health insurance'],0,,10,Clayton,https://objectstorage.us-ashburn-1.oraclecloud.com/n/idapel7w8ikn/b/company-dev/o/logo_1_1658851110628.jpeg,GOTORO,desc,,37.8902,-121.878,Capital Markets,Financial Sales / Broker,,1000.0,2.0,,1.0,94517,['Javascript'],California,1,Job1427_update,PART_TIME
77,1376,['Health insurance'],0,,12,Watsonville,https://objectstorage.us-ashburn-1.oraclecloud.com/n/idapel7w8ikn/b/company-dev/o/logo_1_1658851110628.jpeg,GOTORO,Description,,36.9393,-121.748,Education / Higher Education,Enrollment / General,,2000.0,0.0,,1.0,95076,['C#'],California,2,Job136,Part Time
78,476,"['Life insurance', 'SOS', 'Nha']",0,,55,Elmhurst,https://objectstorage.us-ashburn-1.oraclecloud.com/n/idapel7w8ikn/b/company-dev/o/logo_1_1658851110628.jpeg,GOTORO,Desc,,40.7389,-73.8786,Education / Higher Education,Teacher - Preschool,,2000.0,0.0,,1.0,11373,"['Javascript', 'C#', 'aa', 'bb']",New York,1,Job 1136,Full Time
79,534,"['Paid time off (PTO) such as sick day and vacation days', 'SQL']",0,,54,Vista,https://objectstorage.us-ashburn-1.oraclecloud.com/n/idapel7w8ikn/b/company-dev/o/logo_33_1658591981306.jpg,managedclient23,Desc,,33.2222,-117.205,Education / Higher Education,Enrollment / General,,1000.0,0.0,,1.0,92084,"['Javascript', 'VueJs']",California,1,Job 1258,Part Time
80,438,"['Flexible and remote working options', 'Retirement benefit or accounts']",0,,5,Bell Gardens,https://objectstorage.us-ashburn-1.oraclecloud.com/n/idapel7w8ikn/b/company-dev/o/logo_1_1658851110628.jpeg,GOTORO,desc,,33.9707,-118.171,Construction / Facilities,Finish Carpenter,,2000.0,0.0,,1.0,90201,"['Javascript', 'C#']",California,1,Job 338,Part Time
81,1154,"['Life insurance', 'Health insurance']",0,,63,Chino Hills,,Gotoro 6,Desc,,33.9643,-117.736,Education / Higher Education,Teacher - Preschool,,2000.0,2.0,,1.0,91709,['mySql'],California,1,Job2252187,Part Time
82,1203,['Retirement benefit or accounts'],0,,1,Rego Park,https://objectstorage.us-ashburn-1.oraclecloud.com/n/idapel7w8ikn/b/company-dev/o/logo_1_1658851110628.jpeg,GOTORO,create job bt lta 720 348,,40.7265,-73.8615,Construction / Facilities,Line Worker,,12344.0,0.0,,1.0,11374,"['C#', 'Sleep']",New York,1,create job bt lta 720 350,Full Time
83,1928,"['Flexible and remote working options', 'Retirement benefit or accounts']",0,,1,Cerritos,https://objectstorage.us-ashburn-1.oraclecloud.com/n/idapel7w8ikn/b/company-dev/o/logo_1_1658851110628.jpeg,GOTORO,dessc,,33.8679,-118.069,Capital Markets,Trader,,600.0,0.0,,1.0,90703,"['Php', 'bb']",California,1,crypto digger,FULL_TIME
84,925,"['Health insurance', 'Life insurance']",0,,122,Katy,,test,developer 1407 0933,,29.8356,-95.7381,Construction / Facilities,Foreman,,1000.0,0.0,,1.0,77449,"['mySql', 'Sleep']",Texas,1,developer 1407 0933,Part Time
85,1816,"['Health insurance', 'Life insurance']",0,,222,Katy,https://objectstorage.us-ashburn-1.oraclecloud.com/n/idapel7w8ikn/b/company-dev/o/logo_1_1658851110628.jpeg,GOTORO,"excellent communicator, great at number and analytical skills",,29.8356,-95.7381,Finance,Financial Advisor,,2000.0,2.0,,1.0,77449,['mySql'],Texas,1,Data Analyst,FULL_TIME
86,1886,"['PHP', 'SOS']",0,,223,Fort Lee,,FPT - managed,Desc,,40.8508,-73.9712,Emergency Services / Enforcement,Police and Sherrifs Patrol Officers,,1000.0,2.0,,1.0,7024,"['bb', 'Php']",New Jersey,1,Job1817,PART_TIME
87,1839,"['PHP', 'Employee assistance programs(mental and emotional wellbing)']",0,,1,South Gate,https://objectstorage.us-ashburn-1.oraclecloud.com/n/idapel7w8ikn/b/company-dev/o/logo_1_1658851110628.jpeg,GOTORO,tho xay ,,33.9446,-118.193,Construction / Facilities,Demolitions,,22222.0,0.0,,1.0,90280,"['Javascript', 'mySql']",California,1,tho xay,FULL_TIME
88,1095,"['Flexible and remote working options', 'Life insurance']",0,,144,Shirley,https://objectstorage.us-ashburn-1.oraclecloud.com/n/idapel7w8ikn/b/company-dev/o/logo_33_1658591981306.jpg,managedclient23,normal,,40.7951,-72.8749,Construction / Facilities,Highway Maintenance,,1000.0,0.0,,1.0,11967,"['Javascript', 'mySql']",New York,2,Normal developer,Full Time
89,324,"['Health insurance', 'Flexible and remote working options', 'Retirement benefit or accounts']",0,,97,Pico Rivera,https://objectstorage.us-ashburn-1.oraclecloud.com/n/idapel7w8ikn/b/company-dev/o/logo_1_1658851110628.jpeg,GOTORO,Desc,,33.9888,-118.091,Capital Markets,Trader,,123.0,0.0,,1.0,90660,"['Javascript', 'C#', 'mySql']",California,1,Job 220,Full Time
90,439,"['Flexible and remote working options', 'Retirement benefit or accounts']",0,,5,Bronx,https://objectstorage.us-ashburn-1.oraclecloud.com/n/idapel7w8ikn/b/company-dev/o/logo_1_1658851110628.jpeg,GOTORO,desc,,40.8808,-73.8739,Construction / Facilities,Finish Carpenter,,2000.0,0.0,,1.0,10467,"['Javascript', 'C#']",New York,1,Job 338,Part Time
91,1822,"['Health insurance', 'Life insurance']",0,,222,College Station,https://objectstorage.us-ashburn-1.oraclecloud.com/n/idapel7w8ikn/b/company-dev/o/logo_1_1658851110628.jpeg,GOTORO,"excellent communicator, great at number and analytical skills",,30.5625,-96.2756,Finance,Financial Advisor,,2000.0,2.0,,1.0,77845,['mySql'],Texas,1,Data Analyst,FULL_TIME
92,836,"['Life insurance', 'Flexible and remote working options']",0,,1,Mesquite,https://objectstorage.us-ashburn-1.oraclecloud.com/n/idapel7w8ikn/b/company-dev/o/logo_1_1658851110628.jpeg,GOTORO,test create job,,32.77,-96.6149,Construction / Facilities,Foreman,,12.0,0.0,,1.0,75149,['Javascript'],Texas,1,test create job,Full Time
93,1063,"['Employee assistance programs(mental and emotional wellbing)', 'Paid time off (PTO) such as sick day and vacation days', 'Flexible and remote working options']",0,,48,Forest Hills,https://objectstorage.us-ashburn-1.oraclecloud.com/n/idapel7w8ikn/b/company-dev/o/logo_33_1658591981306.jpg,managedclient23,"Develop Apex (classes and triggers), Lightning Components, and Visualforce to extend Salesforce in order to support business requirements,",,40.7209,-73.8461,Construction / Facilities,Foreman,,1000.0,0.0,,1.0,11375,['Javascript'],New York,1,Junior Salesforce Developer (JavaScript),Full Time
94,1953,['Employee assistance programs(mental and emotional wellbing)'],0,,1,East Elmhurst,https://objectstorage.us-ashburn-1.oraclecloud.com/n/idapel7w8ikn/b/company-dev/o/logo_1_1658851110628.jpeg,GOTORO,test,,40.7634,-73.8724,Education / Higher Education,Teaching Assistant,,3303.0,2.0,,1.0,11369,['Javascript'],New York,1,hackerr,FULL_TIME
95,2033,"['Health insurance', 'Flexible and remote working options']",0,,9,South Ozone Park,https://objectstorage.us-ashburn-1.oraclecloud.com/n/idapel7w8ikn/b/company-dev/o/logo_1_1658851110628.jpeg,GOTORO,ADesc,,40.6736,-73.8179,Education / Higher Education,Enrollment / General,,1000.0,4.0,,1.0,11420,['C#'],New York,1,Job 1446,PART_TIME
96,373,"['Health insurance', 'Paid time off (PTO) such as sick day and vacation days']",0,,57,Los Angeles,https://objectstorage.us-ashburn-1.oraclecloud.com/n/idapel7w8ikn/b/company-dev/o/logo_33_1658591981306.jpg,managedclient23,Desc,,33.9528,-118.292,Capital Markets,Trader,,2000.0,0.0,,1.0,90044,['Javascript'],California,2,Job 935,Part Time
97,332,"['Health insurance', 'Life insurance', 'Paid time off (PTO) such as sick day and vacation days']",0,,96,Chicago,https://objectstorage.us-ashburn-1.oraclecloud.com/n/idapel7w8ikn/b/company-dev/o/logo_1_1658851110628.jpeg,GOTORO,Desc,,41.7814,-87.7706,Capital Markets,Trader,,2000.0,0.0,,1.0,60638,"['Javascript', 'C#', 'mySql']",Illinois,1,Job 228,Part Time
98,623,['Health insurance'],0,,48,Palmdale,https://objectstorage.us-ashburn-1.oraclecloud.com/n/idapel7w8ikn/b/company-dev/o/logo_33_1658591981306.jpg,managedclient23,Java Full Stack Developer,,34.4133,-118.092,Construction / Facilities,Demolitions,,1200.0,0.0,,1.0,93550,"['Java', 'Sprint Boot']",California,1,Java Full Stack Developer,Full Time
99,770,"['Health insurance', 'Paid time off (PTO) such as sick day and vacation days']",0,,12,Bronx,https://objectstorage.us-ashburn-1.oraclecloud.com/n/idapel7w8ikn/b/company-dev/o/logo_1_1658851110628.jpeg,GOTORO,Description,,40.83,-73.9081,Education / Higher Education,Enrollment / General,,2000.0,0.0,,1.0,10456,"['aa', 'Sleep']",New York,2,Job 1514,Full Time
100,1331,['Flexible and remote working options'],0,,1,Katy,https://objectstorage.us-ashburn-1.oraclecloud.com/n/idapel7w8ikn/b/company-dev/o/logo_1_1658851110628.jpeg,GOTORO,create job by lta check spin,,29.8356,-95.7381,Construction / Facilities,Line Worker,,1234.0,0.0,,1.0,77449,"['mySql', 'bb']",Texas,1,create job by lta check spin,Full Time
101,132,['Health insurance'],0,,10,Costa Mesa,https://objectstorage.us-ashburn-1.oraclecloud.com/n/idapel7w8ikn/b/company-dev/o/logo_1_1658851110628.jpeg,GOTORO,Desc,,33.6479,-117.92,Capital Markets,Trader,,,,,,92627,['Javascript'],California,1,Job 132,Full Time
102,1535,"['Health insurance', 'Life insurance']",0,,222,Richmond,https://objectstorage.us-ashburn-1.oraclecloud.com/n/idapel7w8ikn/b/company-dev/o/logo_1_1658851110628.jpeg,GOTORO,"excellent communicator, great at number and analytical skills",,29.48,-95.6831,Finance,Financial Advisor,,2000.0,0.0,,1.0,77469,['mySql'],Texas,1,Data Analyst,FULL_TIME
103,535,"['Paid time off (PTO) such as sick day and vacation days', 'SQL']",0,,54,Hemet,https://objectstorage.us-ashburn-1.oraclecloud.com/n/idapel7w8ikn/b/company-dev/o/logo_33_1658591981306.jpg,managedclient23,Desc,,33.6982,-116.977,Education / Higher Education,Enrollment / General,,1000.0,0.0,,1.0,92543,"['Javascript', 'VueJs']",California,1,Job 1258,Part Time
104,380,"['Health insurance', 'Paid time off (PTO) such as sick day and vacation days']",0,,57,Frisco,https://objectstorage.us-ashburn-1.oraclecloud.com/n/idapel7w8ikn/b/company-dev/o/logo_33_1658591981306.jpg,managedclient23,Desc,,33.152,-96.8604,Capital Markets,Trader,,2000.0,0.0,,1.0,75034,['Javascript'],Texas,2,Job 935,Part Time
105,605,"['Life insurance', 'Health insurance']",0,,58,Katy,https://objectstorage.us-ashburn-1.oraclecloud.com/n/idapel7w8ikn/b/company-dev/o/logo_33_1658591981306.jpg,managedclient23,PHP Full Stack BE,,29.7463,-95.7383,Construction / Facilities,HAZMAT,,1000.0,2.0,,1.0,77450,"['Sleep', 'Laravel']",Texas,2,PHP Full Stack BE,Full Time
106,1463,"['Retirement benefit or accounts', 'PHP']",0,,12,Rio Vista,https://objectstorage.us-ashburn-1.oraclecloud.com/n/idapel7w8ikn/b/company-dev/o/logo_1_1658851110628.jpeg,GOTORO,Desc,,38.1582,-121.74,Construction / Facilities,Demolitions,,1000.0,0.0,,1.0,94571,"['C#', 'aa']",California,2,Job 1518,PART_TIME
107,719,['PHP'],0,,51,Cypress,https://objectstorage.us-ashburn-1.oraclecloud.com/n/idapel7w8ikn/b/company-dev/o/logo_1_1658851110628.jpeg,GOTORO,Description,,29.9727,-95.6968,Education / Higher Education,Teacher - Preschool,,1000.0,0.0,,1.0,77410,"['bb', 'Sleep']",Texas,1,Job 0003,Part Time
108,340,"['Health insurance', 'Flexible and remote working options', 'Paid time off (PTO) such as sick day and vacation days']",0,,15,El Paso,https://objectstorage.us-ashburn-1.oraclecloud.com/n/idapel7w8ikn/b/company-dev/o/logo_1_1658851110628.jpeg,GOTORO,Desc,,31.7762,-106.298,Capital Markets,Trader,,2000.0,0.0,,1.0,79936,"['Javascript', 'C#']",Texas,1,Job 1128,Full Time
109,913,['Flexible and remote working options'],0,,122,Richmond,,test,job123123123344324,,29.6765,-95.7125,Construction / Facilities,Line Worker,,222.0,0.0,,1.0,77407,['C#'],Texas,1,job123123123344324,Part Time
110,706,"['Paid time off (PTO) such as sick day and vacation days', 'Life insurance']",0,,79,Hawthorne,,Publisher Company,This is job description,,33.9144,-118.349,Construction / Facilities,Line Worker,,2000.0,0.0,,1.0,90250,"['Javascript', 'mySql']",California,1,Job 0000,Part Time
111,2059,['Life insurance'],0,,221,Lakewood,https://objectstorage.us-ashburn-1.oraclecloud.com/n/idapel7w8ikn/b/company-dev/o/logo_1_1658851110628.jpeg,GOTORO,Decsc,,33.8404,-118.079,Emergency Services / Enforcement,Parking Enforcement,,1000.0,2.0,,1.0,90715,['Sleep'],California,1,Job1700,PART_TIME
112,501,"['Health insurance', 'Life insurance']",0,,100,Spring,https://objectstorage.us-ashburn-1.oraclecloud.com/n/idapel7w8ikn/b/company-dev/o/logo_33_1658591981306.jpg,managedclient23,123,,30.1012,-95.3558,Construction / Facilities,Foreman,,123.0,0.0,,1.0,77386,"['Javascript', 'C#']",Texas,1,123,Part Time
113,914,['Flexible and remote working options'],0,,122,Tomball,,test,job123123123344324,,30.0954,-95.5894,Construction / Facilities,Line Worker,,222.0,0.0,,1.0,77375,['C#'],Texas,1,job123123123344324,Part Time
114,1312,"['Health insurance', 'Life insurance']",0,,193,Bell Gardens,https://objectstorage.us-ashburn-1.oraclecloud.com/n/idapel7w8ikn/b/company-dev/o/logo_194_1658821820952.png,NVM,Job 1116,,33.9707,-118.171,Construction / Facilities,Foreman,,3333.0,2.0,,1.0,90201,"['mySql', 'Javascript']",California,1,Job 1117,Full Time
115,780,['Health insurance'],0,,11,Missouri City,https://objectstorage.us-ashburn-1.oraclecloud.com/n/idapel7w8ikn/b/company-dev/o/logo_1_1658851110628.jpeg,GOTORO,Desc,,29.5257,-95.533,Education / Higher Education,Speech Pathologist,,2222.0,0.0,,1.0,77459,['Javascript'],Texas,1,Job 1550,Part Time
116,423,"['Flexible and remote working options', 'Retirement benefit or accounts']",0,,5,New Braunfels,https://objectstorage.us-ashburn-1.oraclecloud.com/n/idapel7w8ikn/b/company-dev/o/logo_1_1658851110628.jpeg,GOTORO,desc,,29.6977,-98.0702,Construction / Facilities,Finish Carpenter,,2000.0,0.0,,1.0,78130,"['Javascript', 'C#']",Texas,1,Job 338,Part Time
117,2019,"['Health insurance', 'Flexible and remote working options']",0,,9,Elmhurst,https://objectstorage.us-ashburn-1.oraclecloud.com/n/idapel7w8ikn/b/company-dev/o/logo_1_1658851110628.jpeg,GOTORO,ADesc,,40.7389,-73.8786,Education / Higher Education,Enrollment / General,,1000.0,4.0,,1.0,11373,['C#'],New York,1,Job 1446,PART_TIME
118,274,"['Health insurance', 'Life insurance', 'Flexible and remote working options', 'Paid time off (PTO) such as sick day and vacation days', 'Employee assistance programs(mental and emotional wellbing)']",0,,48,Maywood,https://objectstorage.us-ashburn-1.oraclecloud.com/n/idapel7w8ikn/b/company-dev/o/logo_33_1658591981306.jpg,managedclient23,"Who we are looking for: experienced frontend engineers who will play a central role in building out both the large-scale intelligent products that runs in the cloud to improve patients and doctor experiences. As a member of our dynamic, agile team, you will have influence on defining product features, design and implement products features and drive operational excellence, and spearhead the engineering best practices that enable a high-quality product.",,40.9026,-74.0633,Capital Markets,Trader,,20129.0,0.0,,1.0,7607,"['Javascript', 'C#', 'mySql']",New Jersey,1,BE Việt Nam!,Full Time
119,1378,['Health insurance'],0,,12,Aptos,https://objectstorage.us-ashburn-1.oraclecloud.com/n/idapel7w8ikn/b/company-dev/o/logo_1_1658851110628.jpeg,GOTORO,Description,,37.0102,-121.878,Education / Higher Education,Enrollment / General,,2000.0,0.0,,1.0,95003,['C#'],California,2,Job136,Part Time
120,5,"['Health insurance', 'Life insurance']",0,,1,Holtsville,https://objectstorage.us-ashburn-1.oraclecloud.com/n/idapel7w8ikn/b/company-dev/o/logo_1_1658851110628.jpeg,GOTORO,Description,,40.8131,-73.0464,Capital Markets,Trader,,,,,,501,"['Javascript', 'C#']",New York,2,NodeJS Developer,FULL_TIME
121,844,['Paid time off (PTO) such as sick day and vacation days'],0,,1,Richmond,https://objectstorage.us-ashburn-1.oraclecloud.com/n/idapel7w8ikn/b/company-dev/o/logo_1_1658851110628.jpeg,GOTORO,create job test by lta 712 259,,29.6765,-95.7125,Construction / Facilities,Line Worker,,1241.0,0.0,,1.0,77407,"['C#', 'aa', 'Php']",Texas,1,create job test by lta 712 259,Part Time
122,1009,['Life insurance'],0,,133,Cypress,,FPT,Desc,,29.9491,-95.7392,Education / Higher Education,Enrollment / General,,2000.0,0.0,,1.0,77433,['Sleep'],Texas,1,Job1429157,Contract
123,619,['Health insurance'],0,,48,Santa Ana,https://objectstorage.us-ashburn-1.oraclecloud.com/n/idapel7w8ikn/b/company-dev/o/logo_33_1658591981306.jpg,managedclient23,Java Full Stack Developer,,33.7205,-117.908,Construction / Facilities,Demolitions,,1200.0,0.0,,1.0,92704,"['Java', 'Sprint Boot']",California,1,Java Full Stack Developer,Full Time
124,369,['Retirement benefit or accounts'],0,,59,Bronx,https://objectstorage.us-ashburn-1.oraclecloud.com/n/idapel7w8ikn/b/company-dev/o/logo_33_1658591981306.jpg,managedclient23,Desc,,40.8808,-73.8739,Capital Markets,Trader,,2000.0,0.0,,1.0,10467,['mySql'],New York,2,Job 1130,Part Time
125,1818,"['Health insurance', 'Life insurance']",0,,222,Cypress,https://objectstorage.us-ashburn-1.oraclecloud.com/n/idapel7w8ikn/b/company-dev/o/logo_1_1658851110628.jpeg,GOTORO,"excellent communicator, great at number and analytical skills",,29.9491,-95.7392,Finance,Financial Advisor,,2000.0,2.0,,1.0,77433,['mySql'],Texas,1,Data Analyst,FULL_TIME
126,420,"['Health insurance', 'Paid time off (PTO) such as sick day and vacation days']",0,,57,Bell Gardens,https://objectstorage.us-ashburn-1.oraclecloud.com/n/idapel7w8ikn/b/company-dev/o/logo_33_1658591981306.jpg,managedclient23,Desc,,33.9707,-118.171,Capital Markets,Trader,,2000.0,0.0,,1.0,90201,['Javascript'],California,2,Job 935,Part Time
127,277,"['Health insurance', 'Life insurance', 'Flexible and remote working options', 'Paid time off (PTO) such as sick day and vacation days', 'Employee assistance programs(mental and emotional wellbing)']",0,,48,Rochelle Park,https://objectstorage.us-ashburn-1.oraclecloud.com/n/idapel7w8ikn/b/company-dev/o/logo_33_1658591981306.jpg,managedclient23,"Who we are looking for: experienced frontend engineers who will play a central role in building out both the large-scale intelligent products that runs in the cloud to improve patients and doctor experiences. As a member of our dynamic, agile team, you will have influence on defining product features, design and implement products features and drive operational excellence, and spearhead the engineering best practices that enable a high-quality product.",,40.9072,-74.0794,Capital Markets,Trader,,20129.0,0.0,,1.0,7662,"['Javascript', 'C#', 'mySql']",New Jersey,1,BE Việt Nam!,Full Time
128,105,['Flexible and remote working options'],0,,4,Loganville,https://objectstorage.us-ashburn-1.oraclecloud.com/n/idapel7w8ikn/b/company-dev/o/logo_1_1658851110628.jpeg,GOTORO,Desc,,33.8158,-83.8947,Capital Markets,Trader,,,,,,30052,['Javascript'],Georgia,1,Job1,Contract
129,313,"['Health insurance', 'Flexible and remote working options', 'Retirement benefit or accounts']",0,,97,Norwalk,https://objectstorage.us-ashburn-1.oraclecloud.com/n/idapel7w8ikn/b/company-dev/o/logo_1_1658851110628.jpeg,GOTORO,Desc,,33.9068,-118.083,Capital Markets,Trader,,123.0,0.0,,1.0,90650,"['Javascript', 'C#', 'mySql']",California,1,Job 220,Full Time
130,1285,['Life insurance'],0,,70,Hoboken,,FPT - managed,adasd,,40.7452,-74.0322,Construction / Facilities,Highway Maintenance,,123.0,2.0,,1.0,7030,['C#'],New Jersey,1,Who your daddy,Full Time
131,1066,"['Employee assistance programs(mental and emotional wellbing)', 'Paid time off (PTO) such as sick day and vacation days', 'Flexible and remote working options']",0,,48,Parkville,https://objectstorage.us-ashburn-1.oraclecloud.com/n/idapel7w8ikn/b/company-dev/o/logo_33_1658591981306.jpg,managedclient23,"Develop Apex (classes and triggers), Lightning Components, and Visualforce to extend Salesforce in order to support business requirements,",,39.3935,-76.5339,Construction / Facilities,Foreman,,1000.0,0.0,,1.0,21234,['Javascript'],Maryland,1,Junior Salesforce Developer (JavaScript),Full Time
132,959,"['Flexible and remote working options', 'Retirement benefit or accounts', 'Employee assistance programs(mental and emotional wellbing)']",0,,57,El Paso,https://objectstorage.us-ashburn-1.oraclecloud.com/n/idapel7w8ikn/b/company-dev/o/logo_33_1658591981306.jpg,managedclient23,FE,,31.7762,-106.298,Construction / Facilities,Foreman,,1000.0,0.0,,1.0,79936,"['Javascript', 'Sleep']",Texas,2,FE 001,Full Time
133,2054,['Life insurance'],0,,221,Whittier,https://objectstorage.us-ashburn-1.oraclecloud.com/n/idapel7w8ikn/b/company-dev/o/logo_1_1658851110628.jpeg,GOTORO,Decsc,,33.9301,-118.012,Emergency Services / Enforcement,Parking Enforcement,,1000.0,2.0,,1.0,90604,['Sleep'],California,1,Job1700,PART_TIME
134,818,['Health insurance'],0,,15,Bellflower,https://objectstorage.us-ashburn-1.oraclecloud.com/n/idapel7w8ikn/b/company-dev/o/logo_1_1658851110628.jpeg,GOTORO,Description,,33.888,-118.127,Construction / Facilities,Line Worker,,2000.0,0.0,,1.0,90706,['Sleep'],California,1,Job 1030,Part Time
135,1874,"['PHP', 'SOS']",0,,223,Jackson Heights,,FPT - managed,Desc,,40.7517,-73.8836,Emergency Services / Enforcement,Police and Sherrifs Patrol Officers,,1000.0,2.0,,1.0,11372,"['bb', 'Php']",New York,1,Job1817,PART_TIME
136,1257,['Life insurance'],0,,53,Union City,,FPT - managed,123,,40.7674,-74.0323,Construction / Facilities,HAZMAT,,123.0,0.0,,1.0,7087,['Php'],New Jersey,1,Who is your daddy,Full Time
137,123,['Health insurance'],0,,10,Santa Ana,https://objectstorage.us-ashburn-1.oraclecloud.com/n/idapel7w8ikn/b/company-dev/o/logo_1_1658851110628.jpeg,GOTORO,Desc,,33.7487,-117.906,Capital Markets,Trader,,,,,,92703,['Javascript'],California,1,Job 132,Full Time
138,2053,['Life insurance'],0,,221,South El Monte,https://objectstorage.us-ashburn-1.oraclecloud.com/n/idapel7w8ikn/b/company-dev/o/logo_1_1658851110628.jpeg,GOTORO,Decsc,,34.0455,-118.053,Emergency Services / Enforcement,Parking Enforcement,,1000.0,2.0,,1.0,91733,['Sleep'],California,1,Job1700,PART_TIME
139,477,"['Life insurance', 'SOS', 'Nha']",0,,55,New York,https://objectstorage.us-ashburn-1.oraclecloud.com/n/idapel7w8ikn/b/company-dev/o/logo_1_1658851110628.jpeg,GOTORO,Desc,,40.7986,-73.9666,Education / Higher Education,Teacher - Preschool,,2000.0,0.0,,1.0,10025,"['Javascript', 'C#', 'aa', 'bb']",New York,1,Job 1136,Full Time
140,1982,['Health insurance'],0,,10,Hackensack,https://objectstorage.us-ashburn-1.oraclecloud.com/n/idapel7w8ikn/b/company-dev/o/logo_1_1658851110628.jpeg,GOTORO,desc,,40.889,-74.0461,Capital Markets,Financial Sales / Broker,,1000.0,2.0,,1.0,7601,['Javascript'],New Jersey,1,Job1427_update,PART_TIME
141,42,['Paid time off (PTO) such as sick day and vacation days'],0,,1,South Gate,https://objectstorage.us-ashburn-1.oraclecloud.com/n/idapel7w8ikn/b/company-dev/o/logo_1_1658851110628.jpeg,GOTORO,123123,,33.9446,-118.193,Capital Markets,Trader,,,,,,90280,['Javascript'],California,5,123,Full Time
142,1317,['Flexible and remote working options'],0,,53,Katy,,FPT - managed,create job description,,29.8356,-95.7381,Construction / Facilities,Line Worker,,1234.0,2.0,,1.0,77449,"['C#', 'Sleep']",Texas,2,create job title bt lta 328 721,Full Time
143,320,"['Health insurance', 'Flexible and remote working options', 'Retirement benefit or accounts']",0,,97,Huntington Park,https://objectstorage.us-ashburn-1.oraclecloud.com/n/idapel7w8ikn/b/company-dev/o/logo_1_1658851110628.jpeg,GOTORO,Desc,,33.977,-118.217,Capital Markets,Trader,,123.0,0.0,,1.0,90255,"['Javascript', 'C#', 'mySql']",California,1,Job 220,Full Time
144,1981,['Health insurance'],0,,10,Jersey City,https://objectstorage.us-ashburn-1.oraclecloud.com/n/idapel7w8ikn/b/company-dev/o/logo_1_1658851110628.jpeg,GOTORO,desc,,40.6985,-74.0805,Capital Markets,Financial Sales / Broker,,1000.0,2.0,,1.0,7305,['Javascript'],New Jersey,1,Job1427_update,PART_TIME
145,153,"['Life insurance', 'Health insurance', 'Flexible and remote working options', 'Paid time off (PTO) such as sick day and vacation days', 'Retirement benefit or accounts', 'Employee assistance programs(mental and emotional wellbing)']",0,,48,Cypress,https://objectstorage.us-ashburn-1.oraclecloud.com/n/idapel7w8ikn/b/company-dev/o/logo_33_1658591981306.jpg,managedclient23,Frontend,,29.991,-95.6588,Capital Markets,Trader,,1000.0,0.0,,1.0,77429,['Javascript'],Texas,1,Job Frontend,Full Time
146,1006,"['Health insurance', 'SOS']",0,,131,Kell,,FPT,Desc,,38.5147,-88.9127,Construction / Facilities,Demolitions,,2000.0,0.0,,1.0,62853,['Sleep'],Illinois,1,Job1335157,Part Time
147,178,['Health insurance'],0,,1,Cypress,https://objectstorage.us-ashburn-1.oraclecloud.com/n/idapel7w8ikn/b/company-dev/o/logo_1_1658851110628.jpeg,GOTORO,Desc,,33.8181,-118.038,Capital Markets,Trader,,1234.0,0.0,,1.0,90630,['Javascript'],California,2,Job1203,Full Time
148,323,"['Health insurance', 'Flexible and remote working options', 'Retirement benefit or accounts']",0,,97,North Hills,https://objectstorage.us-ashburn-1.oraclecloud.com/n/idapel7w8ikn/b/company-dev/o/logo_1_1658851110628.jpeg,GOTORO,Desc,,34.2383,-118.481,Capital Markets,Trader,,123.0,0.0,,1.0,91343,"['Javascript', 'C#', 'mySql']",California,1,Job 220,Full Time
149,538,"['Paid time off (PTO) such as sick day and vacation days', 'SQL']",0,,54,San Jacinto,https://objectstorage.us-ashburn-1.oraclecloud.com/n/idapel7w8ikn/b/company-dev/o/logo_33_1658591981306.jpg,managedclient23,Desc,,33.7968,-116.932,Education / Higher Education,Enrollment / General,,1000.0,0.0,,1.0,92583,"['Javascript', 'VueJs']",California,1,Job 1258,Part Time
150,248,"['Paid time off (PTO) such as sick day and vacation days', 'Flexible and remote working options', 'Life insurance', 'Retirement benefit or accounts']",0,,9,Mansfield,https://objectstorage.us-ashburn-1.oraclecloud.com/n/idapel7w8ikn/b/company-dev/o/logo_1_1658851110628.jpeg,GOTORO,We are currently seeking a new Frontend Developer to join our expanding team.,,32.5698,-97.1428,Capital Markets,Trader,,2000.0,0.0,,1.0,76063,"['Javascript', 'C#', 'mySql']",Texas,2,PHP 1,Full Time
151,994,"['Paid time off (PTO) such as sick day and vacation days', 'Flexible and remote working options', 'Employee assistance programs(mental and emotional wellbing)']",0,,127,Hawthorne,,FPT,aaa,,33.9144,-118.349,Construction / Facilities,Demolitions,,1300.0,0.0,,1.0,90250,"['Javascript', 'mySql', 'aa']",California,1,FE Con meo,Full Time
152,1878,"['PHP', 'SOS']",0,,223,Springfield Gardens,,FPT - managed,Desc,,40.6699,-73.7509,Emergency Services / Enforcement,Police and Sherrifs Patrol Officers,,1000.0,2.0,,1.0,11413,"['bb', 'Php']",New York,1,Job1817,PART_TIME
153,50,['Paid time off (PTO) such as sick day and vacation days'],0,,1,Sugar Land,https://objectstorage.us-ashburn-1.oraclecloud.com/n/idapel7w8ikn/b/company-dev/o/logo_1_1658851110628.jpeg,GOTORO,123123,,29.5665,-95.6356,Capital Markets,Trader,,,,,,77479,['Javascript'],Texas,2,123,Full Time
154,733,['Retirement benefit or accounts'],0,,117,Pacoima,https://objectstorage.us-ashburn-1.oraclecloud.com/n/idapel7w8ikn/b/company-dev/o/logo_33_1658591981306.jpg,managedclient23,this is a job,,34.2556,-118.421,Construction / Facilities,Line Worker,,5000.0,0.0,,1.0,91331,['C#'],California,1,Recruit IT BA,Full Time
155,548,"['Paid time off (PTO) such as sick day and vacation days', 'SQL']",0,,54,Long Beach,https://objectstorage.us-ashburn-1.oraclecloud.com/n/idapel7w8ikn/b/company-dev/o/logo_33_1658591981306.jpg,managedclient23,Desc,,33.8649,-118.181,Education / Higher Education,Enrollment / General,,1000.0,0.0,,1.0,90805,"['Javascript', 'VueJs']",California,1,Job 1258,Part Time
156,1067,"['Employee assistance programs(mental and emotional wellbing)', 'Paid time off (PTO) such as sick day and vacation days', 'Flexible and remote working options']",0,,48,Union City,https://objectstorage.us-ashburn-1.oraclecloud.com/n/idapel7w8ikn/b/company-dev/o/logo_33_1658591981306.jpg,managedclient23,"Develop Apex (classes and triggers), Lightning Components, and Visualforce to extend Salesforce in order to support business requirements,",,40.7674,-74.0323,Construction / Facilities,Foreman,,1000.0,0.0,,1.0,7087,['Javascript'],New Jersey,1,Junior Salesforce Developer (JavaScript),Full Time
157,1540,"['Health insurance', 'Life insurance']",0,,222,Rosharon,https://objectstorage.us-ashburn-1.oraclecloud.com/n/idapel7w8ikn/b/company-dev/o/logo_1_1658851110628.jpeg,GOTORO,"excellent communicator, great at number and analytical skills",,29.3814,-95.4622,Finance,Financial Advisor,,2000.0,0.0,,1.0,77583,['mySql'],Texas,1,Data Analyst,FULL_TIME
158,514,"['Retirement benefit or accounts', 'Flexible and remote working options', 'Salary']",0,,101,Spring,https://objectstorage.us-ashburn-1.oraclecloud.com/n/idapel7w8ikn/b/company-dev/o/logo_1_1658851110628.jpeg,GOTORO,Desc,,30.0215,-95.5693,Emergency Services / Enforcement,Parking Enforcement,,2000.0,0.0,,1.0,77391,"['Javascript', 'Php', 'Laravel']",Texas,1,Job 1227,Part Time
159,95,"['Paid time off (PTO) such as sick day and vacation days', 'Life insurance']",0,,5,New York,https://objectstorage.us-ashburn-1.oraclecloud.com/n/idapel7w8ikn/b/company-dev/o/logo_1_1658851110628.jpeg,GOTORO,123,,40.7986,-73.9666,Capital Markets,Trader,,,,,,10025,"['Javascript', 'C#']",New York,1,123,Part Time
160,947,['Life insurance'],0,,13,Huntington Park,https://objectstorage.us-ashburn-1.oraclecloud.com/n/idapel7w8ikn/b/company-dev/o/logo_1_1658851110628.jpeg,GOTORO,Job1415147,,33.977,-118.217,Education / Higher Education,Counselor,,2000.0,0.0,,1.0,90255,['Sleep'],California,1,Job1415147,Part Time
161,608,['Health insurance'],0,,48,Los Angeles,https://objectstorage.us-ashburn-1.oraclecloud.com/n/idapel7w8ikn/b/company-dev/o/logo_33_1658591981306.jpg,managedclient23,Java Full Stack Developer,,33.9528,-118.292,Construction / Facilities,Demolitions,,1200.0,0.0,,1.0,90044,"['Java', 'Sprint Boot']",California,1,Java Full Stack Developer,Full Time
162,758,"['Life insurance', 'Paid time off (PTO) such as sick day and vacation days']",0,,1,Bellflower,https://objectstorage.us-ashburn-1.oraclecloud.com/n/idapel7w8ikn/b/company-dev/o/logo_1_1658851110628.jpeg,GOTORO,test create job le the anh desc,,33.888,-118.127,Construction / Facilities,Line Worker,,12344.0,0.0,,1.0,90706,"['aa', 'Php']",California,1,test create job le the anh,Full Time
163,2025,"['Health insurance', 'Flexible and remote working options']",0,,9,Ridgewood,https://objectstorage.us-ashburn-1.oraclecloud.com/n/idapel7w8ikn/b/company-dev/o/logo_1_1658851110628.jpeg,GOTORO,ADesc,,40.701,-73.8901,Education / Higher Education,Enrollment / General,,1000.0,4.0,,1.0,11385,['C#'],New York,1,Job 1446,PART_TIME
164,1363,['Life insurance'],0,,12,Chino Hills,https://objectstorage.us-ashburn-1.oraclecloud.com/n/idapel7w8ikn/b/company-dev/o/logo_1_1658851110628.jpeg,GOTORO,desc,,33.9643,-117.736,Emergency Services / Enforcement,Personal / Private Security,,2000.0,0.0,,1.0,91709,['Sleep'],California,2,Job 1633,Part Time
165,1214,['Retirement benefit or accounts'],0,,1,Forest Hills,https://objectstorage.us-ashburn-1.oraclecloud.com/n/idapel7w8ikn/b/company-dev/o/logo_1_1658851110628.jpeg,GOTORO,create job bt lta 720 348,,40.7209,-73.8461,Construction / Facilities,Line Worker,,12344.0,0.0,,1.0,11375,"['C#', 'Sleep']",New York,1,create job bt lta 720 350,Full Time
166,983,"['Paid time off (PTO) such as sick day and vacation days', 'Flexible and remote working options', 'Employee assistance programs(mental and emotional wellbing)']",0,,127,Pacoima,,FPT,aaa,,34.2556,-118.421,Construction / Facilities,Demolitions,,1300.0,0.0,,1.0,91331,"['Javascript', 'mySql', 'aa']",California,1,FE Con meo,Full Time
167,843,['Paid time off (PTO) such as sick day and vacation days'],0,,1,Cypress,https://objectstorage.us-ashburn-1.oraclecloud.com/n/idapel7w8ikn/b/company-dev/o/logo_1_1658851110628.jpeg,GOTORO,create job test by lta 712 259,,29.991,-95.6588,Construction / Facilities,Line Worker,,1241.0,0.0,,1.0,77429,"['C#', 'aa', 'Php']",Texas,1,create job test by lta 712 259,Part Time
168,645,['Flexible and remote working options'],0,,5,Albuquerque,https://objectstorage.us-ashburn-1.oraclecloud.com/n/idapel7w8ikn/b/company-dev/o/logo_1_1658851110628.jpeg,GOTORO,Description,,35.0725,-106.578,Construction / Facilities,Masonry - Finishing,,2000.0,0.0,,1.0,87108,['Javascript'],New Mexico,2,Job 1052,Full Time
169,82,['Paid time off (PTO) such as sick day and vacation days'],0,,1,Brooklyn,https://objectstorage.us-ashburn-1.oraclecloud.com/n/idapel7w8ikn/b/company-dev/o/logo_1_1658851110628.jpeg,GOTORO,123123,,40.6221,-73.9651,Capital Markets,Trader,,,,,,11230,['Javascript'],New York,5,123,Full Time
170,377,"['Health insurance', 'Paid time off (PTO) such as sick day and vacation days']",0,,57,El Paso,https://objectstorage.us-ashburn-1.oraclecloud.com/n/idapel7w8ikn/b/company-dev/o/logo_33_1658591981306.jpg,managedclient23,Desc,,31.7762,-106.298,Capital Markets,Trader,,2000.0,0.0,,1.0,79936,['Javascript'],Texas,2,Job 935,Part Time
171,49,['Paid time off (PTO) such as sick day and vacation days'],0,,1,Houston,https://objectstorage.us-ashburn-1.oraclecloud.com/n/idapel7w8ikn/b/company-dev/o/logo_1_1658851110628.jpeg,GOTORO,123123,,29.6996,-95.585,Capital Markets,Trader,,,,,,77072,['Javascript'],Texas,2,123,Full Time
172,1188,"['Health insurance', 'Life insurance']",0,,211,Texas City,,managedclient23,desc,,29.3909,-94.9197,Construction / Facilities,Foreman,,400.0,0.0,,1.0,77590,['C#'],Texas,1,Job tester 19t7,Part Time
173,1882,"['PHP', 'SOS']",0,,223,Richmond Hill,,FPT - managed,Desc,,40.7002,-73.8361,Emergency Services / Enforcement,Police and Sherrifs Patrol Officers,,1000.0,2.0,,1.0,11418,"['bb', 'Php']",New York,1,Job1817,PART_TIME
174,965,"['Flexible and remote working options', 'Retirement benefit or accounts', 'Employee assistance programs(mental and emotional wellbing)']",0,,57,Grand Prairie,https://objectstorage.us-ashburn-1.oraclecloud.com/n/idapel7w8ikn/b/company-dev/o/logo_33_1658591981306.jpg,managedclient23,FE,,32.6659,-97.0265,Construction / Facilities,Foreman,,1000.0,0.0,,1.0,75052,"['Javascript', 'Sleep']",Texas,2,FE 001,Full Time
175,657,"['Health insurance', 'Paid time off (PTO) such as sick day and vacation days']",0,,48,Lakewood,https://objectstorage.us-ashburn-1.oraclecloud.com/n/idapel7w8ikn/b/company-dev/o/logo_33_1658591981306.jpg,managedclient23,letheanh test question desc,,40.0765,-74.2032,Construction / Facilities,Building Inspection,,12345.0,0.0,,1.0,8701,"['mySql', 'Sleep']",New Jersey,1,letheanh test question,Full Time
176,1954,['Employee assistance programs(mental and emotional wellbing)'],0,,1,Jackson Heights,https://objectstorage.us-ashburn-1.oraclecloud.com/n/idapel7w8ikn/b/company-dev/o/logo_1_1658851110628.jpeg,GOTORO,test,,40.7517,-73.8836,Education / Higher Education,Teaching Assistant,,3303.0,2.0,,1.0,11372,['Javascript'],New York,1,hackerr,FULL_TIME
177,465,"['Life insurance', 'SOS', 'Nha']",0,,55,Pearland,https://objectstorage.us-ashburn-1.oraclecloud.com/n/idapel7w8ikn/b/company-dev/o/logo_1_1658851110628.jpeg,GOTORO,Desc,,29.546,-95.3508,Education / Higher Education,Teacher - Preschool,,2000.0,0.0,,1.0,77584,"['Javascript', 'C#', 'aa', 'bb']",Texas,1,Job 1136,Full Time
178,467,"['Life insurance', 'SOS', 'Nha']",0,,55,Missouri City,https://objectstorage.us-ashburn-1.oraclecloud.com/n/idapel7w8ikn/b/company-dev/o/logo_1_1658851110628.jpeg,GOTORO,Desc,,29.5257,-95.533,Education / Higher Education,Teacher - Preschool,,2000.0,0.0,,1.0,77459,"['Javascript', 'C#', 'aa', 'bb']",Texas,1,Job 1136,Full Time
179,2014,"['Health insurance', 'Flexible and remote working options']",0,,9,Brooklyn,https://objectstorage.us-ashburn-1.oraclecloud.com/n/idapel7w8ikn/b/company-dev/o/logo_1_1658851110628.jpeg,GOTORO,ADesc,,40.6396,-73.9011,Education / Higher Education,Enrollment / General,,1000.0,4.0,,1.0,11236,['C#'],New York,1,Job 1446,PART_TIME
180,225,['Employee assistance programs(mental and emotional wellbing)'],0,,92,Chicago,,testclosejob,33,,41.8481,-87.7178,Capital Markets,Financial Sales / Broker,,19.0,0.0,,1.0,60623,"['Javascript', 'C#']",Illinois,1,close job,Part Time
181,1227,"['Health insurance', 'Flexible and remote working options']",0,,4,Bell Gardens,https://objectstorage.us-ashburn-1.oraclecloud.com/n/idapel7w8ikn/b/company-dev/o/logo_1_1658851110628.jpeg,GOTORO,create job by lta 720 419 desc,,33.9707,-118.171,Construction / Facilities,Demolitions,,1234.0,0.0,,1.0,90201,"['C#', 'Sleep']",California,1,create job by lta 720 419,Part Time
182,664,"['Health insurance', 'Paid time off (PTO) such as sick day and vacation days']",0,,48,Manchester Township,https://objectstorage.us-ashburn-1.oraclecloud.com/n/idapel7w8ikn/b/company-dev/o/logo_33_1658591981306.jpg,managedclient23,letheanh test question desc,,39.9784,-74.3562,Construction / Facilities,Building Inspection,,12345.0,0.0,,1.0,8759,"['mySql', 'Sleep']",New Jersey,1,letheanh test question,Full Time
183,137,['Health insurance'],0,,33,Oak Park,https://objectstorage.us-ashburn-1.oraclecloud.com/n/idapel7w8ikn/b/company-dev/o/logo_1_1658851110628.jpeg,GOTORO,Ã†Â°,,41.8724,-87.7895,Capital Markets,Trader,,,,,,60304,['Javascript'],Illinois,1,test job,Part Time
184,1111,['Retirement benefit or accounts'],0,,13,Clayton,https://objectstorage.us-ashburn-1.oraclecloud.com/n/idapel7w8ikn/b/company-dev/o/logo_1_1658851110628.jpeg,GOTORO,Job1411147,,37.8902,-121.878,Emergency Services / Enforcement,Correctional Officesr and Jailers,,123.0,2.0,,1.0,94517,['C#'],California,1,Job1411147,Full Time
185,612,['Health insurance'],0,,48,Fontana,https://objectstorage.us-ashburn-1.oraclecloud.com/n/idapel7w8ikn/b/company-dev/o/logo_33_1658591981306.jpg,managedclient23,Java Full Stack Developer,,34.1465,-117.464,Construction / Facilities,Demolitions,,1200.0,0.0,,1.0,92336,"['Java', 'Sprint Boot']",California,1,Java Full Stack Developer,Full Time
186,382,"['Health insurance', 'Paid time off (PTO) such as sick day and vacation days']",0,,57,Ridgewood,https://objectstorage.us-ashburn-1.oraclecloud.com/n/idapel7w8ikn/b/company-dev/o/logo_33_1658591981306.jpg,managedclient23,Desc,,40.701,-73.8901,Capital Markets,Trader,,2000.0,0.0,,1.0,11385,['Javascript'],New York,2,Job 935,Part Time
187,398,"['Health insurance', 'Paid time off (PTO) such as sick day and vacation days']",0,,57,Bronx,https://objectstorage.us-ashburn-1.oraclecloud.com/n/idapel7w8ikn/b/company-dev/o/logo_33_1658591981306.jpg,managedclient23,Desc,,40.8808,-73.8739,Capital Markets,Trader,,2000.0,0.0,,1.0,10467,['Javascript'],New York,2,Job 935,Part Time
188,83,['Paid time off (PTO) such as sick day and vacation days'],0,,1,Lakewood,https://objectstorage.us-ashburn-1.oraclecloud.com/n/idapel7w8ikn/b/company-dev/o/logo_1_1658851110628.jpeg,GOTORO,123123,,40.0765,-74.2032,Capital Markets,Trader,,,,,,8701,['Javascript'],New Jersey,2,123,Full Time
189,1864,['Employee assistance programs(mental and emotional wellbing)'],0,,69,Los Angeles,,Gotoro 10052 ,create bt lta 725 512,,33.967,-118.172,Construction / Facilities,Foreman,,12.0,2.0,,1.0,90096,['C#'],California,1,create bt lta 725 512,FULL_TIME
190,245,"['Paid time off (PTO) such as sick day and vacation days', 'Flexible and remote working options', 'Life insurance', 'Retirement benefit or accounts']",0,,9,Mckinney,https://objectstorage.us-ashburn-1.oraclecloud.com/n/idapel7w8ikn/b/company-dev/o/logo_1_1658851110628.jpeg,GOTORO,We are currently seeking a new Frontend Developer to join our expanding team.,,33.1731,-96.6977,Capital Markets,Trader,,2000.0,0.0,,1.0,75070,"['Javascript', 'C#', 'mySql']",Texas,2,PHP 1,Full Time
191,461,"['Life insurance', 'SOS', 'Nha']",0,,55,Katy,https://objectstorage.us-ashburn-1.oraclecloud.com/n/idapel7w8ikn/b/company-dev/o/logo_1_1658851110628.jpeg,GOTORO,Desc,,29.7463,-95.7383,Education / Higher Education,Teacher - Preschool,,2000.0,0.0,,1.0,77450,"['Javascript', 'C#', 'aa', 'bb']",Texas,1,Job 1136,Full Time
192,361,['Retirement benefit or accounts'],0,,59,Ridgewood,https://objectstorage.us-ashburn-1.oraclecloud.com/n/idapel7w8ikn/b/company-dev/o/logo_33_1658591981306.jpg,managedclient23,Desc,,40.701,-73.8901,Capital Markets,Trader,,2000.0,0.0,,1.0,11385,['mySql'],New York,2,Job 1130,Part Time
193,463,"['Life insurance', 'SOS', 'Nha']",0,,55,Sugar Land,https://objectstorage.us-ashburn-1.oraclecloud.com/n/idapel7w8ikn/b/company-dev/o/logo_1_1658851110628.jpeg,GOTORO,Desc,,29.5665,-95.6356,Education / Higher Education,Teacher - Preschool,,2000.0,0.0,,1.0,77479,"['Javascript', 'C#', 'aa', 'bb']",Texas,1,Job 1136,Full Time
194,1447,"['Retirement benefit or accounts', 'PHP']",0,,12,Livermore,https://objectstorage.us-ashburn-1.oraclecloud.com/n/idapel7w8ikn/b/company-dev/o/logo_1_1658851110628.jpeg,GOTORO,Desc,,37.7526,-121.77,Construction / Facilities,Demolitions,,1000.0,0.0,,1.0,94551,"['C#', 'aa']",California,2,Job 1518,PART_TIME
195,286,"['Health insurance', 'Life insurance', 'Flexible and remote working options', 'Paid time off (PTO) such as sick day and vacation days', 'Retirement benefit or accounts', 'Employee assistance programs(mental and emotional wellbing)']",0,,57,Westminster,https://objectstorage.us-ashburn-1.oraclecloud.com/n/idapel7w8ikn/b/company-dev/o/logo_33_1658591981306.jpg,managedclient23,"VinBrain is a company funded by Vingroup, the largest conglomerate in Vietnam by market capitalization. Our mission is to perform cutting-edge research and development of AI, Machine Learning, and Deep Learning technologies and products that will lead to improve healthcare system and quality of life. At VinBrain, we believe the greatest promise of Big Data lies in healthcare. We believe that by solving unique and challenging problems at the intersection of (medical) Big Data, AI, IoT, and IoP (Internet of People), we can improve the outcomes for patients around the globe. We have assembled seasoned researchers, engineers, and entrepreneurs from world-class companies such as Microsoft, Amazon, Adobe and Google to build the platform and services to achieve this. If you are motivated to be part of something special and to be a catalyst for improving lives and healthier communities, we want to talk to you.",,33.7528,-117.995,Capital Markets,Trader,,2000.0,0.0,,1.0,92685,"['Javascript', 'mySql', 'C#']",California,2,Network vN,Full Time
196,374,"['Health insurance', 'Paid time off (PTO) such as sick day and vacation days']",0,,57,Tokio,https://objectstorage.us-ashburn-1.oraclecloud.com/n/idapel7w8ikn/b/company-dev/o/logo_33_1658591981306.jpg,managedclient23,Desc,,33.2339,-102.673,Capital Markets,Trader,,2000.0,0.0,,1.0,79376,['Javascript'],Texas,2,Job 935,Part Time
197,2061,['Life insurance'],0,,221,La Palma,https://objectstorage.us-ashburn-1.oraclecloud.com/n/idapel7w8ikn/b/company-dev/o/logo_1_1658851110628.jpeg,GOTORO,Decsc,,33.8504,-118.041,Emergency Services / Enforcement,Parking Enforcement,,1000.0,2.0,,1.0,90623,['Sleep'],California,1,Job1700,PART_TIME
198,963,"['Flexible and remote working options', 'Retirement benefit or accounts', 'Employee assistance programs(mental and emotional wellbing)']",0,,57,Mckinney,https://objectstorage.us-ashburn-1.oraclecloud.com/n/idapel7w8ikn/b/company-dev/o/logo_33_1658591981306.jpg,managedclient23,FE,,33.1731,-96.6977,Construction / Facilities,Foreman,,1000.0,0.0,,1.0,75070,"['Javascript', 'Sleep']",Texas,2,FE 001,Full Time
199,822,['Health insurance'],0,,15,La Habra,https://objectstorage.us-ashburn-1.oraclecloud.com/n/idapel7w8ikn/b/company-dev/o/logo_1_1658851110628.jpeg,GOTORO,Description,,33.9425,-117.951,Construction / Facilities,Line Worker,,2000.0,0.0,,1.0,90631,['Sleep'],California,1,Job 1030,Part Time
200,1356,['Eat'],0,,12,Santa Isabel,https://objectstorage.us-ashburn-1.oraclecloud.com/n/idapel7w8ikn/b/company-dev/o/logo_1_1658851110628.jpeg,GOTORO,desc,,17.9973,-66.3889,Construction / Facilities,Masonry - Finishing,,2000.0,0.0,,1.0,757,['Sleep'],Puerto Rico,2,Job 1631,Part Time
201,118,['Health insurance'],0,,10,Norwalk,https://objectstorage.us-ashburn-1.oraclecloud.com/n/idapel7w8ikn/b/company-dev/o/logo_1_1658851110628.jpeg,GOTORO,Desc,,33.9068,-118.083,Capital Markets,Trader,,,,,,90650,['Javascript'],California,1,Job 132,Full Time
202,824,[],0,,12,Palmdale,,GOTORO,Desc,,34.4133,-118.092,Construction / Facilities,Line Worker,,1000.0,0.0,,1.0,93550,[],California,1,LJob1133,Full Time
203,1153,"['Life insurance', 'Health insurance']",0,,63,Westminster,,Gotoro 6,Desc,,33.7525,-117.994,Education / Higher Education,Teacher - Preschool,,2000.0,2.0,,1.0,92683,['mySql'],California,1,Job2252187,Part Time
204,261,"['Health insurance', 'Life insurance', 'Paid time off (PTO) such as sick day and vacation days']",0,,93,Canutillo,https://objectstorage.us-ashburn-1.oraclecloud.com/n/idapel7w8ikn/b/company-dev/o/logo_33_1658591981306.jpg,managedclient23,Description,,31.935200000000002,-106.587,Capital Markets,Trader,,2000.0,2.0,,1.0,79835,"['Javascript', 'C#']",Texas,2,Job 1130,Full Time
205,1541,"['Health insurance', 'Life insurance']",0,,222,Kingwood,https://objectstorage.us-ashburn-1.oraclecloud.com/n/idapel7w8ikn/b/company-dev/o/logo_1_1658851110628.jpeg,GOTORO,"excellent communicator, great at number and analytical skills",,30.0493,-95.2213,Finance,Financial Advisor,,2000.0,0.0,,1.0,77339,['mySql'],Texas,1,Data Analyst,FULL_TIME
206,1360,['Life insurance'],0,,12,Norwalk,https://objectstorage.us-ashburn-1.oraclecloud.com/n/idapel7w8ikn/b/company-dev/o/logo_1_1658851110628.jpeg,GOTORO,desc,,33.9068,-118.083,Emergency Services / Enforcement,Personal / Private Security,,2000.0,0.0,,1.0,90650,['Sleep'],California,2,Job 1633,Part Time
207,1305,['Life insurance'],0,,70,Penitas,,FPT - managed,adasd,,26.3072,-98.476,Construction / Facilities,Highway Maintenance,,123.0,2.0,,1.0,78576,['C#'],Texas,1,Who your daddy,Full Time
208,1492,['Flexible and remote working options'],0,,12,Walnut Creek,https://objectstorage.us-ashburn-1.oraclecloud.com/n/idapel7w8ikn/b/company-dev/o/logo_1_1658851110628.jpeg,GOTORO,decs,,37.8891,-122.038,Construction / Facilities,Demolitions,,2000.0,0.0,,1.0,94596,['aa'],California,2,Job 1533,PART_TIME
209,237,"['Life insurance', 'Paid time off (PTO) such as sick day and vacation days', 'Retirement benefit or accounts']",0,,11,Brooklyn,https://objectstorage.us-ashburn-1.oraclecloud.com/n/idapel7w8ikn/b/company-dev/o/logo_1_1658851110628.jpeg,GOTORO,Desc,,40.6282,-73.9463,Capital Markets,Trader,,2000.0,0.0,,1.0,11210,"['C#', 'Javascript']",New York,2,Job 436,Part Time
210,194,"['Health insurance', 'Life insurance', 'Flexible and remote working options']",0,,90,Elmhurst,https://objectstorage.us-ashburn-1.oraclecloud.com/n/idapel7w8ikn/b/company-dev/o/logo_1_1658851110628.jpeg,GOTORO,This is description,,40.7389,-73.8786,Capital Markets,Trader,,2000.0,0.0,,1.0,11373,"['Javascript', 'C#']",New York,1,Job 957,Full Time
211,456,"['Flexible and remote working options', 'Life insurance']",0,,58,Bell Gardens,https://objectstorage.us-ashburn-1.oraclecloud.com/n/idapel7w8ikn/b/company-dev/o/logo_33_1658591981306.jpg,managedclient23,Desc,,33.9707,-118.171,Construction / Facilities,Masonry - Finishing,,3000.0,0.0,,1.0,90201,['Sleep'],California,2,Job 452,Part Time
212,1008,['Life insurance'],0,,133,Katy,,FPT,Desc,,29.8356,-95.7381,Education / Higher Education,Enrollment / General,,2000.0,0.0,,1.0,77449,['Sleep'],Texas,1,Job1429157,Contract
213,60,['Paid time off (PTO) such as sick day and vacation days'],0,,1,Chicago,https://objectstorage.us-ashburn-1.oraclecloud.com/n/idapel7w8ikn/b/company-dev/o/logo_1_1658851110628.jpeg,GOTORO,123123,,41.9021,-87.7409,Capital Markets,Trader,,,,,,60651,['Javascript'],Illinois,2,123,Full Time
214,1217,['Retirement benefit or accounts'],0,,1,Rego Park,https://objectstorage.us-ashburn-1.oraclecloud.com/n/idapel7w8ikn/b/company-dev/o/logo_1_1658851110628.jpeg,GOTORO,create job bt lta 720 348,,40.7265,-73.8615,Construction / Facilities,Line Worker,,12344.0,0.0,,1.0,11374,"['C#', 'Sleep']",New York,1,create job bt lta 720 350,Full Time
215,820,['Health insurance'],0,,15,Huntington Park,https://objectstorage.us-ashburn-1.oraclecloud.com/n/idapel7w8ikn/b/company-dev/o/logo_1_1658851110628.jpeg,GOTORO,Description,,33.977,-118.217,Construction / Facilities,Line Worker,,2000.0,0.0,,1.0,90255,['Sleep'],California,1,Job 1030,Part Time
216,1965,['Employee assistance programs(mental and emotional wellbing)'],0,,1,South Richmond Hill,https://objectstorage.us-ashburn-1.oraclecloud.com/n/idapel7w8ikn/b/company-dev/o/logo_1_1658851110628.jpeg,GOTORO,test,,40.6886,-73.823,Education / Higher Education,Teaching Assistant,,3303.0,2.0,,1.0,11419,['Javascript'],New York,1,hackerr,FULL_TIME
217,1314,"['Health insurance', 'Life insurance']",0,,193,Bell Gardens,https://objectstorage.us-ashburn-1.oraclecloud.com/n/idapel7w8ikn/b/company-dev/o/logo_194_1658821820952.png,NVM,Job 1116,,33.9707,-118.171,Construction / Facilities,Foreman,,1111.0,2.0,,1.0,90201,"['mySql', 'Javascript']",California,1,Job 1116,Full Time
218,1269,['Life insurance'],0,,53,Hackensack,,FPT - managed,123,,40.889,-74.0461,Construction / Facilities,HAZMAT,,123.0,0.0,,1.0,7601,['Php'],New Jersey,1,Who is your daddy,Full Time
219,391,"['Health insurance', 'Paid time off (PTO) such as sick day and vacation days']",0,,57,Frisco,https://objectstorage.us-ashburn-1.oraclecloud.com/n/idapel7w8ikn/b/company-dev/o/logo_33_1658591981306.jpg,managedclient23,Desc,,33.152,-96.8604,Capital Markets,Trader,,2000.0,0.0,,1.0,75034,['Javascript'],Texas,2,Job 935,Part Time
220,1845,['PHP'],0,,223,Aptos,,FPT - managed,Desc,,37.0102,-121.878,Construction / Facilities,Masonry - Finishing,,10000.0,0.0,,1.0,95003,['Sleep'],California,1,Job1654257,PART_TIME
221,67,['Paid time off (PTO) such as sick day and vacation days'],0,,1,Bell Gardens,https://objectstorage.us-ashburn-1.oraclecloud.com/n/idapel7w8ikn/b/company-dev/o/logo_1_1658851110628.jpeg,GOTORO,123123,,33.9707,-118.171,Capital Markets,Trader,,,,,,90201,['Javascript'],California,2,123,Full Time
222,1983,['Health insurance'],0,,10,Teaneck,https://objectstorage.us-ashburn-1.oraclecloud.com/n/idapel7w8ikn/b/company-dev/o/logo_1_1658851110628.jpeg,GOTORO,desc,,40.8899,-74.0106,Capital Markets,Financial Sales / Broker,,1000.0,2.0,,1.0,7666,['Javascript'],New Jersey,1,Job1427_update,PART_TIME
223,506,"['Life insurance', 'More pay', 'SOS', 'Nha']",0,,55,Houston,https://objectstorage.us-ashburn-1.oraclecloud.com/n/idapel7w8ikn/b/company-dev/o/logo_1_1658851110628.jpeg,GOTORO,Desc,,29.8264,-95.6621,Education / Higher Education,Teacher - Preschool,,2000.0,2.0,,1.0,77084,"['Javascript', 'C#', 'Php', 'aa', 'bb']",Texas,1,Job 1136_update_v2,Full Time
224,414,"['Health insurance', 'Paid time off (PTO) such as sick day and vacation days']",0,,57,Houston,https://objectstorage.us-ashburn-1.oraclecloud.com/n/idapel7w8ikn/b/company-dev/o/logo_33_1658591981306.jpg,managedclient23,Desc,,29.8264,-95.6621,Capital Markets,Trader,,2000.0,0.0,,1.0,77084,['Javascript'],Texas,2,Job 935,Part Time
225,1197,['Retirement benefit or accounts'],0,,1,Rego Park,https://objectstorage.us-ashburn-1.oraclecloud.com/n/idapel7w8ikn/b/company-dev/o/logo_1_1658851110628.jpeg,GOTORO,create job bt lta 720 348,,40.7265,-73.8615,Construction / Facilities,Line Worker,,12344.0,0.0,,1.0,11374,"['C#', 'Sleep']",New York,1,create job bt lta 720 350,Full Time
226,1444,"['Retirement benefit or accounts', 'PHP']",0,,12,Brentwood,https://objectstorage.us-ashburn-1.oraclecloud.com/n/idapel7w8ikn/b/company-dev/o/logo_1_1658851110628.jpeg,GOTORO,Desc,,37.9234,-121.675,Construction / Facilities,Demolitions,,1000.0,0.0,,1.0,94513,"['C#', 'aa']",California,2,Job 1518,PART_TIME
227,1077,"['Employee assistance programs(mental and emotional wellbing)', 'Paid time off (PTO) such as sick day and vacation days', 'Flexible and remote working options']",0,,48,Yonkers,https://objectstorage.us-ashburn-1.oraclecloud.com/n/idapel7w8ikn/b/company-dev/o/logo_33_1658591981306.jpg,managedclient23,"Develop Apex (classes and triggers), Lightning Components, and Visualforce to extend Salesforce in order to support business requirements,",,40.9454,-73.8803,Construction / Facilities,Foreman,,1000.0,0.0,,1.0,10701,['Javascript'],New York,1,Junior Salesforce Developer (JavaScript),Full Time
228,549,"['Paid time off (PTO) such as sick day and vacation days', 'SQL']",0,,54,South Gate,https://objectstorage.us-ashburn-1.oraclecloud.com/n/idapel7w8ikn/b/company-dev/o/logo_33_1658591981306.jpg,managedclient23,Desc,,33.9446,-118.193,Education / Higher Education,Enrollment / General,,1000.0,0.0,,1.0,90280,"['Javascript', 'VueJs']",California,1,Job 1258,Part Time
229,2003,['Health insurance'],0,,10,Walnut Creek,https://objectstorage.us-ashburn-1.oraclecloud.com/n/idapel7w8ikn/b/company-dev/o/logo_1_1658851110628.jpeg,GOTORO,desc,,37.8891,-122.038,Capital Markets,Financial Sales / Broker,,1000.0,2.0,,1.0,94596,['Javascript'],California,1,Job1427_update,PART_TIME
230,985,"['Paid time off (PTO) such as sick day and vacation days', 'Flexible and remote working options', 'Employee assistance programs(mental and emotional wellbing)']",0,,127,El Paso,,FPT,aaa,,31.7762,-106.298,Construction / Facilities,Demolitions,,1300.0,0.0,,1.0,79936,"['Javascript', 'mySql', 'aa']",Texas,1,FE Con meo,Full Time
231,125,['Health insurance'],0,,10,Chino Hills,https://objectstorage.us-ashburn-1.oraclecloud.com/n/idapel7w8ikn/b/company-dev/o/logo_1_1658851110628.jpeg,GOTORO,Desc,,33.9643,-117.736,Capital Markets,Trader,,,,,,91709,['Javascript'],California,1,Job 132,Full Time
232,197,"['Health insurance', 'Life insurance', 'Flexible and remote working options']",0,,90,Woodside,https://objectstorage.us-ashburn-1.oraclecloud.com/n/idapel7w8ikn/b/company-dev/o/logo_1_1658851110628.jpeg,GOTORO,This is description,,40.7448,-73.9052,Capital Markets,Trader,,2000.0,0.0,,1.0,11377,"['Javascript', 'C#']",New York,1,Job 957,Full Time
233,720,['PHP'],0,,51,Barker,https://objectstorage.us-ashburn-1.oraclecloud.com/n/idapel7w8ikn/b/company-dev/o/logo_1_1658851110628.jpeg,GOTORO,Description,,29.7706,-95.7023,Education / Higher Education,Teacher - Preschool,,1000.0,0.0,,1.0,77413,"['bb', 'Sleep']",Texas,1,Job 0003,Part Time
234,416,"['Health insurance', 'Paid time off (PTO) such as sick day and vacation days']",0,,57,Norwalk,https://objectstorage.us-ashburn-1.oraclecloud.com/n/idapel7w8ikn/b/company-dev/o/logo_33_1658591981306.jpg,managedclient23,Desc,,33.9068,-118.083,Capital Markets,Trader,,2000.0,0.0,,1.0,90650,['Javascript'],California,2,Job 935,Part Time
235,966,"['Flexible and remote working options', 'Retirement benefit or accounts', 'Employee assistance programs(mental and emotional wellbing)']",0,,57,Sugar Land,https://objectstorage.us-ashburn-1.oraclecloud.com/n/idapel7w8ikn/b/company-dev/o/logo_33_1658591981306.jpg,managedclient23,FE,,29.5665,-95.6356,Construction / Facilities,Foreman,,1000.0,0.0,,1.0,77479,"['Javascript', 'Sleep']",Texas,2,FE 001,Full Time
236,875,['Life insurance'],0,,12,Antioch,https://objectstorage.us-ashburn-1.oraclecloud.com/n/idapel7w8ikn/b/company-dev/o/logo_1_1658851110628.jpeg,GOTORO,Description,,37.9657,-121.776,Construction / Facilities,Line Worker,,2000.0,0.0,,1.0,94531,['C#'],California,2,Job1341,Part Time
237,500,"['Health insurance', 'Life insurance']",0,,100,Pearland,https://objectstorage.us-ashburn-1.oraclecloud.com/n/idapel7w8ikn/b/company-dev/o/logo_33_1658591981306.jpg,managedclient23,123,,29.546,-95.3508,Construction / Facilities,Foreman,,123.0,0.0,,1.0,77584,"['Javascript', 'C#']",Texas,1,123,Part Time
238,594,['Retirement benefit or accounts'],0,,58,Columbia,https://objectstorage.us-ashburn-1.oraclecloud.com/n/idapel7w8ikn/b/company-dev/o/logo_33_1658591981306.jpg,managedclient23,PHP Full Stack,,35.629,-87.0206,Fitness / Recreational,Facilities Management,,12000.0,0.0,,1.0,38401,"['Javascript', 'Php']",Tennessee,2,PHP Full Stack,Full Time
239,134,['Health insurance'],0,,33,Chicago,https://objectstorage.us-ashburn-1.oraclecloud.com/n/idapel7w8ikn/b/company-dev/o/logo_1_1658851110628.jpeg,GOTORO,Ã†Â°,,41.8481,-87.7178,Capital Markets,Trader,,,,,,60623,['Javascript'],Illinois,1,test job,Part Time
240,201,"['Life insurance', 'Paid time off (PTO) such as sick day and vacation days']",0,,91,Brooklyn,https://objectstorage.us-ashburn-1.oraclecloud.com/n/idapel7w8ikn/b/company-dev/o/logo_1_1658851110628.jpeg,GOTORO,Dessc,,40.6914,-73.9279,Capital Markets,Trader,,2000.0,0.0,,1.0,11221,"['Javascript', 'C#']",New York,1,Job 1156,Full Time
241,837,"['Life insurance', 'Flexible and remote working options']",0,,1,Mesquite,https://objectstorage.us-ashburn-1.oraclecloud.com/n/idapel7w8ikn/b/company-dev/o/logo_1_1658851110628.jpeg,GOTORO,test create job,,32.7704,-96.6141,Construction / Facilities,Foreman,,12.0,0.0,,1.0,75187,['Javascript'],Texas,1,test create job,Full Time
242,670,"['Health insurance', 'Paid time off (PTO) such as sick day and vacation days']",0,,48,Spring Lake,https://objectstorage.us-ashburn-1.oraclecloud.com/n/idapel7w8ikn/b/company-dev/o/logo_33_1658591981306.jpg,managedclient23,letheanh test question desc,,40.153,-74.0358,Construction / Facilities,Building Inspection,,12345.0,0.0,,1.0,7762,"['mySql', 'Sleep']",New Jersey,1,letheanh test question,Full Time
243,883,"['Health insurance', 'Flexible and remote working options']",0,,122,Brooklyn,,test,developer 1407 0857,,40.6221,-73.9651,Construction / Facilities,Foreman,,1000.0,0.0,,1.0,11230,"['Javascript', 'C#', 'mySql']",New York,1,developer 1407 0857,Part Time
244,360,['Retirement benefit or accounts'],0,,59,Frisco,https://objectstorage.us-ashburn-1.oraclecloud.com/n/idapel7w8ikn/b/company-dev/o/logo_33_1658591981306.jpg,managedclient23,Desc,,33.152,-96.8604,Capital Markets,Trader,,2000.0,0.0,,1.0,75034,['mySql'],Texas,2,Job 1130,Part Time
245,707,"['Paid time off (PTO) such as sick day and vacation days', 'Life insurance']",0,,79,Long Beach,,Publisher Company,This is job description,,33.8649,-118.181,Construction / Facilities,Line Worker,,2000.0,0.0,,1.0,90805,"['Javascript', 'mySql']",California,1,Job 0000,Part Time
246,1301,['Life insurance'],0,,70,Mercedes,,FPT - managed,adasd,,26.1748,-97.9109,Construction / Facilities,Highway Maintenance,,123.0,2.0,,1.0,78570,['C#'],Texas,1,Who your daddy,Full Time
247,1201,['Retirement benefit or accounts'],0,,1,Elmhurst,https://objectstorage.us-ashburn-1.oraclecloud.com/n/idapel7w8ikn/b/company-dev/o/logo_1_1658851110628.jpeg,GOTORO,create job bt lta 720 348,,40.7389,-73.8786,Construction / Facilities,Line Worker,,12344.0,0.0,,1.0,11373,"['C#', 'Sleep']",New York,1,create job bt lta 720 350,Full Time
248,79,['Paid time off (PTO) such as sick day and vacation days'],0,,1,La Puente,https://objectstorage.us-ashburn-1.oraclecloud.com/n/idapel7w8ikn/b/company-dev/o/logo_1_1658851110628.jpeg,GOTORO,123123,,34.0289,-117.937,Capital Markets,Trader,,,,,,91744,['Javascript'],California,2,123,Full Time
249,210,"['Life insurance', 'Flexible and remote working options']",0,,4,Richmond,https://objectstorage.us-ashburn-1.oraclecloud.com/n/idapel7w8ikn/b/company-dev/o/logo_1_1658851110628.jpeg,GOTORO,Desc,,29.6436,-95.798,Capital Markets,Trader,,1000.0,0.0,,1.0,77406,['Javascript'],Texas,2,Job 1141,Full Time
250,1289,['Life insurance'],0,,70,Elmont,,FPT - managed,adasd,,40.7013,-73.7079,Construction / Facilities,Highway Maintenance,,123.0,2.0,,1.0,11003,['C#'],New York,1,Who your daddy,Full Time
251,2051,['Life insurance'],0,,221,Cypress,https://objectstorage.us-ashburn-1.oraclecloud.com/n/idapel7w8ikn/b/company-dev/o/logo_1_1658851110628.jpeg,GOTORO,Decsc,,33.8181,-118.038,Emergency Services / Enforcement,Parking Enforcement,,1000.0,2.0,,1.0,90630,['Sleep'],California,1,Job1700,PART_TIME
252,505,"['Life insurance', 'More pay', 'SOS', 'Nha']",0,,55,Staten Island,https://objectstorage.us-ashburn-1.oraclecloud.com/n/idapel7w8ikn/b/company-dev/o/logo_1_1658851110628.jpeg,GOTORO,Desc,,40.5991,-74.1657,Education / Higher Education,Teacher - Preschool,,2000.0,2.0,,1.0,10314,"['Javascript', 'C#', 'Php', 'aa', 'bb']",New York,1,Job 1136_update_v2,Full Time
253,1061,"['Employee assistance programs(mental and emotional wellbing)', 'Paid time off (PTO) such as sick day and vacation days', 'Flexible and remote working options']",0,,48,Elmhurst,https://objectstorage.us-ashburn-1.oraclecloud.com/n/idapel7w8ikn/b/company-dev/o/logo_33_1658591981306.jpg,managedclient23,"Develop Apex (classes and triggers), Lightning Components, and Visualforce to extend Salesforce in order to support business requirements,",,40.7389,-73.8786,Construction / Facilities,Foreman,,1000.0,0.0,,1.0,11373,['Javascript'],New York,1,Junior Salesforce Developer (JavaScript),Full Time
254,1211,['Retirement benefit or accounts'],0,,1,Elmhurst,https://objectstorage.us-ashburn-1.oraclecloud.com/n/idapel7w8ikn/b/company-dev/o/logo_1_1658851110628.jpeg,GOTORO,create job bt lta 720 348,,40.7389,-73.8786,Construction / Facilities,Line Worker,,12344.0,0.0,,1.0,11373,"['C#', 'Sleep']",New York,1,create job bt lta 720 350,Full Time
255,942,['Life insurance'],0,,13,Los Angeles,https://objectstorage.us-ashburn-1.oraclecloud.com/n/idapel7w8ikn/b/company-dev/o/logo_1_1658851110628.jpeg,GOTORO,Job1415147,,34.048,-118.294,Education / Higher Education,Counselor,,2000.0,0.0,,1.0,90006,['Sleep'],California,1,Job1415147,Part Time
256,402,"['Health insurance', 'Paid time off (PTO) such as sick day and vacation days']",0,,57,Lakewood,https://objectstorage.us-ashburn-1.oraclecloud.com/n/idapel7w8ikn/b/company-dev/o/logo_33_1658591981306.jpg,managedclient23,Desc,,40.0765,-74.2032,Capital Markets,Trader,,2000.0,0.0,,1.0,8701,['Javascript'],New Jersey,2,Job 935,Part Time
257,63,['Paid time off (PTO) such as sick day and vacation days'],0,,1,Waukegan,https://objectstorage.us-ashburn-1.oraclecloud.com/n/idapel7w8ikn/b/company-dev/o/logo_1_1658851110628.jpeg,GOTORO,123123,,42.3533,-87.8682,Capital Markets,Trader,,,,,,60085,['Javascript'],Illinois,2,123,Full Time
258,768,"['Health insurance', 'Paid time off (PTO) such as sick day and vacation days']",0,,12,Brooklyn,https://objectstorage.us-ashburn-1.oraclecloud.com/n/idapel7w8ikn/b/company-dev/o/logo_1_1658851110628.jpeg,GOTORO,Description,,40.5971,-73.9736,Education / Higher Education,Enrollment / General,,2000.0,0.0,,1.0,11223,"['aa', 'Sleep']",New York,2,Job 1514,Full Time
259,725,['Paid time off (PTO) such as sick day and vacation days'],0,,54,Cypress,https://objectstorage.us-ashburn-1.oraclecloud.com/n/idapel7w8ikn/b/company-dev/o/logo_33_1658591981306.jpg,managedclient23,Desc,,29.9727,-95.6968,Construction / Facilities,Demolitions,,1000.0,0.0,,1.0,77410,"['aa', 'C#', 'Sleep']",Texas,1,Job 0037,Part Time
260,1206,['Retirement benefit or accounts'],0,,1,Flushing,https://objectstorage.us-ashburn-1.oraclecloud.com/n/idapel7w8ikn/b/company-dev/o/logo_1_1658851110628.jpeg,GOTORO,create job bt lta 720 348,,40.7304,-73.8262,Construction / Facilities,Line Worker,,12344.0,0.0,,1.0,11367,"['C#', 'Sleep']",New York,1,create job bt lta 720 350,Full Time
261,1545,"['Health insurance', 'Life insurance']",0,,222,Dayton,https://objectstorage.us-ashburn-1.oraclecloud.com/n/idapel7w8ikn/b/company-dev/o/logo_1_1658851110628.jpeg,GOTORO,"excellent communicator, great at number and analytical skills",,30.057,-94.9179,Finance,Financial Advisor,,2000.0,0.0,,1.0,77535,['mySql'],Texas,1,Data Analyst,FULL_TIME
262,1202,['Retirement benefit or accounts'],0,,1,Corona,https://objectstorage.us-ashburn-1.oraclecloud.com/n/idapel7w8ikn/b/company-dev/o/logo_1_1658851110628.jpeg,GOTORO,create job bt lta 720 348,,40.7496,-73.8526,Construction / Facilities,Line Worker,,12344.0,0.0,,1.0,11368,"['C#', 'Sleep']",New York,1,create job bt lta 720 350,Full Time
263,1952,['Employee assistance programs(mental and emotional wellbing)'],0,,1,Corona,https://objectstorage.us-ashburn-1.oraclecloud.com/n/idapel7w8ikn/b/company-dev/o/logo_1_1658851110628.jpeg,GOTORO,test,,40.7496,-73.8526,Education / Higher Education,Teaching Assistant,,3303.0,2.0,,1.0,11368,['Javascript'],New York,1,hackerr,FULL_TIME
264,774,['Health insurance'],0,,11,Katy,https://objectstorage.us-ashburn-1.oraclecloud.com/n/idapel7w8ikn/b/company-dev/o/logo_1_1658851110628.jpeg,GOTORO,Desc,,29.8356,-95.7381,Education / Higher Education,Speech Pathologist,,2222.0,0.0,,1.0,77449,['Javascript'],Texas,1,Job 1550,Part Time
265,508,"['Retirement benefit or accounts', 'Flexible and remote working options', 'Salary']",0,,101,Houston,https://objectstorage.us-ashburn-1.oraclecloud.com/n/idapel7w8ikn/b/company-dev/o/logo_1_1658851110628.jpeg,GOTORO,Desc,,29.9082,-95.6532,Emergency Services / Enforcement,Parking Enforcement,,2000.0,0.0,,1.0,77095,"['Javascript', 'Php', 'Laravel']",Texas,1,Job 1227,Part Time
266,1857,"['PHP', 'Paid time off (PTO) such as sick day and vacation days']",0,,69,Katy,,Gotoro 10052 ,create job by lta 725 515,,29.8356,-95.7381,Capital Markets,Financial Sales / Broker,,1234.0,2.0,,1.0,77449,"['mySql', 'aa']",Texas,1,create job by lta 725 515,FULL_TIME
267,490,"['Employee assistance programs(mental and emotional wellbing)', 'Paid time off (PTO) such as sick day and vacation days']",0,,62,Barker,,Publisher Company,Desc,,29.7706,-95.7023,Construction / Facilities,Demolitions,,2000.0,0.0,,1.0,77413,"['C#', 'Javascript', 'Php']",Texas,1,Job 214,Part Time
268,2052,['Life insurance'],0,,221,Buena Park,https://objectstorage.us-ashburn-1.oraclecloud.com/n/idapel7w8ikn/b/company-dev/o/logo_1_1658851110628.jpeg,GOTORO,Decsc,,33.8461,-118.012,Emergency Services / Enforcement,Parking Enforcement,,1000.0,2.0,,1.0,90620,['Sleep'],California,1,Job1700,PART_TIME
269,852,"['Life insurance', 'Paid time off (PTO) such as sick day and vacation days']",0,,1,Richmond,https://objectstorage.us-ashburn-1.oraclecloud.com/n/idapel7w8ikn/b/company-dev/o/logo_1_1658851110628.jpeg,GOTORO,create job test by lta 712 301,,29.6765,-95.7125,Construction / Facilities,Demolitions,,1234.0,0.0,,1.0,77407,"['bb', 'Sleep']",Texas,1,create job test by lta 712 301,Full Time
270,253,"['Paid time off (PTO) such as sick day and vacation days', 'Flexible and remote working options', 'Life insurance', 'Retirement benefit or accounts']",0,,9,Fort Worth,https://objectstorage.us-ashburn-1.oraclecloud.com/n/idapel7w8ikn/b/company-dev/o/logo_1_1658851110628.jpeg,GOTORO,We are currently seeking a new Frontend Developer to join our expanding team.,,32.8588,-97.2913,Capital Markets,Trader,,2000.0,0.0,,1.0,76137,"['Javascript', 'C#', 'mySql']",Texas,2,PHP 1,Full Time
271,723,['Paid time off (PTO) such as sick day and vacation days'],0,,54,Katy,https://objectstorage.us-ashburn-1.oraclecloud.com/n/idapel7w8ikn/b/company-dev/o/logo_33_1658591981306.jpg,managedclient23,Desc,,29.747,-95.8217,Construction / Facilities,Demolitions,,1000.0,0.0,,1.0,77492,"['aa', 'C#', 'Sleep']",Texas,1,Job 0037,Part Time
272,1088,"['Flexible and remote working options', 'Life insurance']",0,,144,East Northport,https://objectstorage.us-ashburn-1.oraclecloud.com/n/idapel7w8ikn/b/company-dev/o/logo_33_1658591981306.jpg,managedclient23,normal,,40.8627,-73.3169,Construction / Facilities,Highway Maintenance,,1000.0,0.0,,1.0,11731,"['Javascript', 'mySql']",New York,2,Normal developer,Full Time
273,650,['Flexible and remote working options'],0,,5,Houston,https://objectstorage.us-ashburn-1.oraclecloud.com/n/idapel7w8ikn/b/company-dev/o/logo_1_1658851110628.jpeg,GOTORO,Description,,29.6708,-95.5852,Construction / Facilities,Masonry - Finishing,,2000.0,0.0,,1.0,77099,['Javascript'],Texas,2,Job 1052,Full Time
274,929,"['Health insurance', 'Life insurance']",0,,122,Cypress,,test,developer 1407 0933,,29.991,-95.6588,Construction / Facilities,Foreman,,1000.0,0.0,,1.0,77429,"['mySql', 'Sleep']",Texas,1,developer 1407 0933,Part Time
275,327,"['Health insurance', 'Flexible and remote working options', 'Retirement benefit or accounts']",0,,97,Canutillo,https://objectstorage.us-ashburn-1.oraclecloud.com/n/idapel7w8ikn/b/company-dev/o/logo_1_1658851110628.jpeg,GOTORO,Desc,,31.935200000000002,-106.587,Capital Markets,Trader,,123.0,0.0,,1.0,79835,"['Javascript', 'C#', 'mySql']",Texas,1,Job 220,Full Time
276,80,['Paid time off (PTO) such as sick day and vacation days'],0,,1,Temecula,https://objectstorage.us-ashburn-1.oraclecloud.com/n/idapel7w8ikn/b/company-dev/o/logo_1_1658851110628.jpeg,GOTORO,123123,,33.5111,-117.031,Capital Markets,Trader,,,,,,92592,['Javascript'],California,2,123,Full Time
277,1147,['Retirement benefit or accounts'],0,,69,Barker,,Gotoro 10052 ,desc,,29.7706,-95.7023,Construction / Facilities,Highway Maintenance,,1000.0,0.0,,1.0,77413,['Sleep'],Texas,1,Job 0010,Contract
278,1945,"['PHP', 'Retirement benefit or accounts']",0,,1,Bell Gardens,https://objectstorage.us-ashburn-1.oraclecloud.com/n/idapel7w8ikn/b/company-dev/o/logo_1_1658851110628.jpeg,GOTORO,,,33.9707,-118.171,Education / Higher Education,Teaching Assistant,,3333.0,0.0,,1.0,90201,"['Javascript', 'mySql']",California,1,Tech leader,FULL_TIME
279,840,['Paid time off (PTO) such as sick day and vacation days'],0,,1,Katy,https://objectstorage.us-ashburn-1.oraclecloud.com/n/idapel7w8ikn/b/company-dev/o/logo_1_1658851110628.jpeg,GOTORO,create job test by lta 712 259,,29.8356,-95.7381,Construction / Facilities,Line Worker,,1241.0,0.0,,1.0,77449,"['C#', 'aa', 'Php']",Texas,1,create job test by lta 712 259,Part Time
280,328,"['Health insurance', 'Flexible and remote working options', 'Retirement benefit or accounts']",0,,97,Anthony,https://objectstorage.us-ashburn-1.oraclecloud.com/n/idapel7w8ikn/b/company-dev/o/logo_1_1658851110628.jpeg,GOTORO,Desc,,31.977,-106.598,Capital Markets,Trader,,123.0,0.0,,1.0,79821,"['Javascript', 'C#', 'mySql']",Texas,1,Job 220,Full Time
281,1220,['Retirement benefit or accounts'],0,,1,East Elmhurst,https://objectstorage.us-ashburn-1.oraclecloud.com/n/idapel7w8ikn/b/company-dev/o/logo_1_1658851110628.jpeg,GOTORO,create job bt lta 720 348,,40.7634,-73.8724,Construction / Facilities,Line Worker,,12344.0,0.0,,1.0,11369,"['C#', 'Sleep']",New York,1,create job bt lta 720 350,Full Time
282,497,"['Health insurance', 'Life insurance']",0,,100,Houston,https://objectstorage.us-ashburn-1.oraclecloud.com/n/idapel7w8ikn/b/company-dev/o/logo_33_1658591981306.jpg,managedclient23,123,,29.7501,-95.6155,Construction / Facilities,Foreman,,123.0,0.0,,1.0,77077,"['Javascript', 'C#']",Texas,1,123,Part Time
283,379,"['Health insurance', 'Paid time off (PTO) such as sick day and vacation days']",0,,57,Los Angeles,https://objectstorage.us-ashburn-1.oraclecloud.com/n/idapel7w8ikn/b/company-dev/o/logo_33_1658591981306.jpg,managedclient23,Desc,,33.9528,-118.292,Capital Markets,Trader,,2000.0,0.0,,1.0,90044,['Javascript'],California,2,Job 935,Part Time
284,169,['Health insurance'],0,,1,Westminster,https://objectstorage.us-ashburn-1.oraclecloud.com/n/idapel7w8ikn/b/company-dev/o/logo_1_1658851110628.jpeg,GOTORO,Desc,,33.7525,-117.994,Capital Markets,Trader,,1234.0,0.0,,1.0,92683,['Javascript'],California,2,Job1203,Full Time
285,1458,"['Retirement benefit or accounts', 'PHP']",0,,12,Orinda,https://objectstorage.us-ashburn-1.oraclecloud.com/n/idapel7w8ikn/b/company-dev/o/logo_1_1658851110628.jpeg,GOTORO,Desc,,37.8797,-122.185,Construction / Facilities,Demolitions,,1000.0,0.0,,1.0,94563,"['C#', 'aa']",California,2,Job 1518,PART_TIME
286,1890,"['Life insurance', 'Flexible and remote working options']",0,,1,Ridgewood,https://objectstorage.us-ashburn-1.oraclecloud.com/n/idapel7w8ikn/b/company-dev/o/logo_1_1658851110628.jpeg,GOTORO,akajob,,40.701,-73.8901,Fitness / Recreational,Nail Tech,,3000.0,0.0,,1.0,11385,"['C#', 'Sleep']",New York,1,supervisor,FULL_TIME
287,1924,"['Flexible and remote working options', 'Retirement benefit or accounts']",0,,1,South Gate,https://objectstorage.us-ashburn-1.oraclecloud.com/n/idapel7w8ikn/b/company-dev/o/logo_1_1658851110628.jpeg,GOTORO,dessc,,33.9446,-118.193,Capital Markets,Trader,,600.0,0.0,,1.0,90280,"['Php', 'bb']",California,1,crypto digger,FULL_TIME
288,588,['Employee assistance programs(mental and emotional wellbing)'],0,,48,Aurora,https://objectstorage.us-ashburn-1.oraclecloud.com/n/idapel7w8ikn/b/company-dev/o/logo_33_1658591981306.jpg,managedclient23,PHP Full Stack,,41.7643,-88.2941,Government,Clerk,,1333.0,0.0,,1.0,60505,"['Php', 'Laravel']",Illinois,1,PHP Full Stack dev,Full Time
289,1371,['Life insurance'],0,,12,El Monte,https://objectstorage.us-ashburn-1.oraclecloud.com/n/idapel7w8ikn/b/company-dev/o/logo_1_1658851110628.jpeg,GOTORO,desc,,34.0734,-118.014,Emergency Services / Enforcement,Personal / Private Security,,2000.0,0.0,,1.0,91732,['Sleep'],California,2,Job 1633,Part Time
290,1988,['Health insurance'],0,,10,Corona,https://objectstorage.us-ashburn-1.oraclecloud.com/n/idapel7w8ikn/b/company-dev/o/logo_1_1658851110628.jpeg,GOTORO,desc,,40.7496,-73.8526,Capital Markets,Financial Sales / Broker,,1000.0,2.0,,1.0,11368,['Javascript'],New York,1,Job1427_update,PART_TIME
291,145,['Health insurance'],0,,54,Cicero,https://objectstorage.us-ashburn-1.oraclecloud.com/n/idapel7w8ikn/b/company-dev/o/logo_33_1658591981306.jpg,managedclient23,tt,,41.8378,-87.7601,Capital Markets,Trader,,22.0,0.0,,1.0,60804,['Javascript'],Illinois,1,tester,Part Time
292,351,"['Health insurance', 'Flexible and remote working options', 'Paid time off (PTO) such as sick day and vacation days']",0,,15,Bronx,https://objectstorage.us-ashburn-1.oraclecloud.com/n/idapel7w8ikn/b/company-dev/o/logo_1_1658851110628.jpeg,GOTORO,Desc,,40.8808,-73.8739,Capital Markets,Trader,,2000.0,0.0,,1.0,10467,"['Javascript', 'C#']",New York,1,Job 1128,Full Time
293,1978,['Health insurance'],0,,10,North Bergen,https://objectstorage.us-ashburn-1.oraclecloud.com/n/idapel7w8ikn/b/company-dev/o/logo_1_1658851110628.jpeg,GOTORO,desc,,40.7936,-74.0261,Capital Markets,Financial Sales / Broker,,1000.0,2.0,,1.0,7047,['Javascript'],New Jersey,1,Job1427_update,PART_TIME
294,553,"['Paid time off (PTO) such as sick day and vacation days', 'SQL']",0,,54,Pico Rivera,https://objectstorage.us-ashburn-1.oraclecloud.com/n/idapel7w8ikn/b/company-dev/o/logo_33_1658591981306.jpg,managedclient23,Desc,,33.9888,-118.091,Education / Higher Education,Enrollment / General,,1000.0,0.0,,1.0,90660,"['Javascript', 'VueJs']",California,1,Job 1258,Part Time
295,639,['Health insurance'],0,,103,Richmond,https://objectstorage.us-ashburn-1.oraclecloud.com/n/idapel7w8ikn/b/company-dev/o/logo_33_1658591981306.jpg,managedclient23,Desc,,29.6765,-95.7125,Education / Higher Education,Teacher - Elementary / Primary,,2000.0,0.0,,1.0,77407,['C#'],Texas,2,Job 957,Part Time
